{
"type": "FeatureCollection",
"crs": { "type": "name", "properties": { "name": "urn:ogc:def:crs:OGC:1.3:CRS84" } },
"features": [
{ "type": "Feature", "properties": { "field_1": 1, "id": 11735, "name": "Kent Ave & S 11 St", "st_x": -73.968415260314899, "st_y": 40.707644944175698, "full": 123, "empty": 5 }, "geometry": { "type": "Point", "coordinates": [ -73.968415260314899, 40.707644944175698 ] } },
{ "type": "Feature", "properties": { "field_1": 2, "id": 11776, "name": "Kent Ave & N 7 St", "st_x": -73.961650729179397, "st_y": 40.7203677529846, "full": 186, "empty": 21 }, "geometry": { "type": "Point", "coordinates": [ -73.961650729179397, 40.7203677529846 ] } },
{ "type": "Feature", "properties": { "field_1": 3, "id": 14543, "name": "E.T. Bike-In Movie Valet Station ", "st_x": -73.959114, "st_y": 40.722852, "full": 1, "empty": 0 }, "geometry": { "type": "Point", "coordinates": [ -73.959114, 40.722852 ] } },
{ "type": "Feature", "properties": { "field_1": 4, "id": 16749, "name": "Kingston Ave & Herkimer St", "st_x": -73.94142771, "st_y": 40.67890679, "full": 19, "empty": 1 }, "geometry": { "type": "Point", "coordinates": [ -73.94142771, 40.67890679 ] } },
{ "type": "Feature", "properties": { "field_1": 5, "id": 16750, "name": "Fulton St & Utica Ave", "st_x": -73.9298911, "st_y": 40.6794268, "full": 19, "empty": 21 }, "geometry": { "type": "Point", "coordinates": [ -73.9298911, 40.6794268 ] } },
{ "type": "Feature", "properties": { "field_1": 6, "id": 16751, "name": "Lewis Ave & Decatur St", "st_x": -73.934903, "st_y": 40.6814598, "full": 49, "empty": 1 }, "geometry": { "type": "Point", "coordinates": [ -73.934903, 40.6814598 ] } },
{ "type": "Feature", "properties": { "field_1": 7, "id": 16752, "name": "Albany Ave & Fulton St", "st_x": -73.938475, "st_y": 40.6800105, "full": 33, "empty": 1 }, "geometry": { "type": "Point", "coordinates": [ -73.938475, 40.6800105 ] } },
{ "type": "Feature", "properties": { "field_1": 8, "id": 16754, "name": "Marcus Garvey Blvd & Macon St", "st_x": -73.938037, "st_y": 40.682601, "full": 43, "empty": 3 }, "geometry": { "type": "Point", "coordinates": [ -73.938037, 40.682601 ] } },
{ "type": "Feature", "properties": { "field_1": 9, "id": 16755, "name": "Halsey St & Tompkins Ave", "st_x": -73.944118, "st_y": 40.6823687, "full": 45, "empty": 1 }, "geometry": { "type": "Point", "coordinates": [ -73.944118, 40.6823687 ] } },
{ "type": "Feature", "properties": { "field_1": 10, "id": 16756, "name": "Putnam Ave & Nostrand Ave", "st_x": -73.94977, "st_y": 40.68402, "full": 39, "empty": 5 }, "geometry": { "type": "Point", "coordinates": [ -73.94977, 40.68402 ] } },
{ "type": "Feature", "properties": { "field_1": 11, "id": 16757, "name": "Cambridge Pl & Gates Ave", "st_x": -73.96304, "st_y": 40.68488, "full": 80, "empty": 0 }, "geometry": { "type": "Point", "coordinates": [ -73.96304, 40.68488 ] } },
{ "type": "Feature", "properties": { "field_1": 12, "id": 16758, "name": "Putnam Ave & Throop Ave", "st_x": -73.94111, "st_y": 40.6851532, "full": 134, "empty": 1 }, "geometry": { "type": "Point", "coordinates": [ -73.94111, 40.6851532 ] } },
{ "type": "Feature", "properties": { "field_1": 13, "id": 16760, "name": "Lewis Ave & Madison St", "st_x": -73.935775, "st_y": 40.686312, "full": 105, "empty": 2 }, "geometry": { "type": "Point", "coordinates": [ -73.935775, 40.686312 ] } },
{ "type": "Feature", "properties": { "field_1": 14, "id": 16761, "name": "Marcy Ave & Lafayette Ave", "st_x": -73.947915, "st_y": 40.6900815, "full": 34, "empty": 0 }, "geometry": { "type": "Point", "coordinates": [ -73.947915, 40.6900815 ] } },
{ "type": "Feature", "properties": { "field_1": 15, "id": 16762, "name": "Greene Ave & Throop Ave", "st_x": -73.942061, "st_y": 40.6894932, "full": 76, "empty": 1 }, "geometry": { "type": "Point", "coordinates": [ -73.942061, 40.6894932 ] } },
{ "type": "Feature", "properties": { "field_1": 16, "id": 16763, "name": "Greene Ave & Nostrand Ave", "st_x": -73.950916, "st_y": 40.6883337, "full": 55, "empty": 0 }, "geometry": { "type": "Point", "coordinates": [ -73.950916, 40.6883337 ] } },
{ "type": "Feature", "properties": { "field_1": 17, "id": 16764, "name": "Kosciuszko St & Nostrand Ave", "st_x": -73.95133465000001, "st_y": 40.69072549, "full": 26, "empty": 2 }, "geometry": { "type": "Point", "coordinates": [ -73.95133465, 40.69072549 ] } },
{ "type": "Feature", "properties": { "field_1": 18, "id": 16765, "name": "Kosciuszko St & Tompkins Ave", "st_x": -73.9452416, "st_y": 40.69128258, "full": 79, "empty": 4 }, "geometry": { "type": "Point", "coordinates": [ -73.9452416, 40.69128258 ] } },
{ "type": "Feature", "properties": { "field_1": 19, "id": 16766, "name": "Lewis Ave & Kosciuszko St", "st_x": -73.93705428, "st_y": 40.69237074, "full": 79, "empty": 1 }, "geometry": { "type": "Point", "coordinates": [ -73.93705428, 40.69237074 ] } },
{ "type": "Feature", "properties": { "field_1": 20, "id": 16767, "name": "Pulaski St & Marcus Garvey Blvd", "st_x": -73.939877, "st_y": 40.6933982, "full": 33, "empty": 2 }, "geometry": { "type": "Point", "coordinates": [ -73.939877, 40.6933982 ] } },
{ "type": "Feature", "properties": { "field_1": 21, "id": 16768, "name": "Willoughby Ave & Tompkins Ave", "st_x": -73.94626915000001, "st_y": 40.69425403, "full": 62, "empty": 3 }, "geometry": { "type": "Point", "coordinates": [ -73.94626915, 40.69425403 ] } },
{ "type": "Feature", "properties": { "field_1": 22, "id": 16769, "name": "Throop Ave & Myrtle Ave", "st_x": -73.94371094, "st_y": 40.69622937, "full": 47, "empty": 1 }, "geometry": { "type": "Point", "coordinates": [ -73.94371094, 40.69622937 ] } },
{ "type": "Feature", "properties": { "field_1": 23, "id": 16770, "name": "Myrtle Ave & Marcy Ave", "st_x": -73.94954908, "st_y": 40.69539817, "full": 19, "empty": 6 }, "geometry": { "type": "Point", "coordinates": [ -73.94954908, 40.69539817 ] } },
{ "type": "Feature", "properties": { "field_1": 24, "id": 16771, "name": "Nostrand Ave & Myrtle Ave", "st_x": -73.95238108, "st_y": 40.69527008, "full": 6, "empty": 9 }, "geometry": { "type": "Point", "coordinates": [ -73.95238108, 40.69527008 ] } },
{ "type": "Feature", "properties": { "field_1": 25, "id": 16772, "name": "Myrtle Ave & Lewis Ave", "st_x": -73.93756926, "st_y": 40.69681963, "full": 32, "empty": 12 }, "geometry": { "type": "Point", "coordinates": [ -73.93756926, 40.69681963 ] } },
{ "type": "Feature", "properties": { "field_1": 26, "id": 16773, "name": "Union Ave & Wallabout St", "st_x": -73.95032283, "st_y": 40.70029511, "full": 18, "empty": 1 }, "geometry": { "type": "Point", "coordinates": [ -73.95032283, 40.70029511 ] } },
{ "type": "Feature", "properties": { "field_1": 27, "id": 16774, "name": "Tompkins Ave & Hopkins St", "st_x": -73.94708417, "st_y": 40.69957608, "full": 9, "empty": 26 }, "geometry": { "type": "Point", "coordinates": [ -73.94708417, 40.69957608 ] } },
{ "type": "Feature", "properties": { "field_1": 28, "id": 16775, "name": "Broadway & Whipple St", "st_x": -73.9437303, "st_y": 40.7016657, "full": 14, "empty": 6 }, "geometry": { "type": "Point", "coordinates": [ -73.9437303, 40.7016657 ] } },
{ "type": "Feature", "properties": { "field_1": 29, "id": 16776, "name": "Humboldt St & Varet St", "st_x": -73.940636, "st_y": 40.7031724, "full": 3, "empty": 14 }, "geometry": { "type": "Point", "coordinates": [ -73.940636, 40.7031724 ] } },
{ "type": "Feature", "properties": { "field_1": 30, "id": 16777, "name": "Lorimer St & Broadway", "st_x": -73.94818595, "st_y": 40.70411791, "full": 13, "empty": 2 }, "geometry": { "type": "Point", "coordinates": [ -73.94818595, 40.70411791 ] } },
{ "type": "Feature", "properties": { "field_1": 31, "id": 16778, "name": "McKibbin St & Manhattan Ave", "st_x": -73.94407279000001, "st_y": 40.70510918, "full": 63, "empty": 3 }, "geometry": { "type": "Point", "coordinates": [ -73.94407279, 40.70510918 ] } },
{ "type": "Feature", "properties": { "field_1": 32, "id": 16779, "name": "Boerum St & Broadway", "st_x": -73.94976519, "st_y": 40.70538077, "full": 48, "empty": 13 }, "geometry": { "type": "Point", "coordinates": [ -73.94976519, 40.70538077 ] } },
{ "type": "Feature", "properties": { "field_1": 33, "id": 16780, "name": "Leonard St & Boerum St", "st_x": -73.94644578, "st_y": 40.70583339, "full": 46, "empty": 1 }, "geometry": { "type": "Point", "coordinates": [ -73.94644578, 40.70583339 ] } },
{ "type": "Feature", "properties": { "field_1": 34, "id": 16781, "name": "Division Ave & Hooper St", "st_x": -73.95441667, "st_y": 40.70691254, "full": 41, "empty": 5 }, "geometry": { "type": "Point", "coordinates": [ -73.95441667, 40.70691254 ] } },
{ "type": "Feature", "properties": { "field_1": 35, "id": 16782, "name": "Montrose Ave & Bushwick Ave", "st_x": -73.94016171, "st_y": 40.70767788, "full": 11, "empty": 7 }, "geometry": { "type": "Point", "coordinates": [ -73.94016171, 40.70767788 ] } },
{ "type": "Feature", "properties": { "field_1": 36, "id": 16783, "name": "Division Ave & Marcy Ave", "st_x": -73.95796783, "st_y": 40.70708701, "full": 14, "empty": 1 }, "geometry": { "type": "Point", "coordinates": [ -73.95796783, 40.70708701 ] } },
{ "type": "Feature", "properties": { "field_1": 37, "id": 16784, "name": "Scholes St & Manhattan Ave", "st_x": -73.9448625, "st_y": 40.70870368, "full": 74, "empty": 0 }, "geometry": { "type": "Point", "coordinates": [ -73.9448625, 40.70870368 ] } },
{ "type": "Feature", "properties": { "field_1": 38, "id": 16785, "name": "Stagg St & Union Ave", "st_x": -73.95095259, "st_y": 40.70877084, "full": 131, "empty": 2 }, "geometry": { "type": "Point", "coordinates": [ -73.95095259, 40.70877084 ] } },
{ "type": "Feature", "properties": { "field_1": 39, "id": 16786, "name": "Broadway & Roebling St", "st_x": -73.95982218, "st_y": 40.70925562, "full": 60, "empty": 13 }, "geometry": { "type": "Point", "coordinates": [ -73.95982218, 40.70925562 ] } },
{ "type": "Feature", "properties": { "field_1": 40, "id": 16787, "name": "Leonard St & Grand St", "st_x": -73.94714303000001, "st_y": 40.71103537, "full": 60, "empty": 0 }, "geometry": { "type": "Point", "coordinates": [ -73.94714303, 40.71103537 ] } },
{ "type": "Feature", "properties": { "field_1": 41, "id": 16788, "name": "S 4 St & Rodney St", "st_x": -73.95608, "st_y": 40.70934, "full": 107, "empty": 6 }, "geometry": { "type": "Point", "coordinates": [ -73.95608, 40.70934 ] } },
{ "type": "Feature", "properties": { "field_1": 42, "id": 16789, "name": "Graham Ave & Grand St", "st_x": -73.944024, "st_y": 40.711863, "full": 96, "empty": 1 }, "geometry": { "type": "Point", "coordinates": [ -73.944024, 40.711863 ] } },
{ "type": "Feature", "properties": { "field_1": 43, "id": 16790, "name": "Hope St & Union Ave", "st_x": -73.95141312, "st_y": 40.71167351, "full": 109, "empty": 2 }, "geometry": { "type": "Point", "coordinates": [ -73.95141312, 40.71167351 ] } },
{ "type": "Feature", "properties": { "field_1": 44, "id": 16791, "name": "Bushwick Ave & Powers St", "st_x": -73.94100005, "st_y": 40.71247661, "full": 90, "empty": 0 }, "geometry": { "type": "Point", "coordinates": [ -73.94100005, 40.71247661 ] } },
{ "type": "Feature", "properties": { "field_1": 45, "id": 16792, "name": "Devoe St & Leonard St", "st_x": -73.94792458000001, "st_y": 40.71348658, "full": 107, "empty": 4 }, "geometry": { "type": "Point", "coordinates": [ -73.94792458, 40.71348658 ] } },
{ "type": "Feature", "properties": { "field_1": 46, "id": 16793, "name": "Roebling St & N 4 St", "st_x": -73.95739, "st_y": 40.71469, "full": 64, "empty": 12 }, "geometry": { "type": "Point", "coordinates": [ -73.95739, 40.71469 ] } },
{ "type": "Feature", "properties": { "field_1": 47, "id": 16794, "name": "Graham Ave & Conselyea St", "st_x": -73.944507, "st_y": 40.715143, "full": 74, "empty": 15 }, "geometry": { "type": "Point", "coordinates": [ -73.944507, 40.715143 ] } },
{ "type": "Feature", "properties": { "field_1": 48, "id": 16795, "name": "Metropolitan Ave & Meeker Ave", "st_x": -73.95234386, "st_y": 40.71413311, "full": 56, "empty": 5 }, "geometry": { "type": "Point", "coordinates": [ -73.95234386, 40.71413311 ] } },
{ "type": "Feature", "properties": { "field_1": 49, "id": 16796, "name": "Union Ave & Jackson St", "st_x": -73.952029, "st_y": 40.7160751, "full": 59, "empty": 1 }, "geometry": { "type": "Point", "coordinates": [ -73.952029, 40.7160751 ] } },
{ "type": "Feature", "properties": { "field_1": 50, "id": 16797, "name": "Leonard St & Meeker Ave", "st_x": -73.948202133178697, "st_y": 40.717318403855799, "full": 34, "empty": 1 }, "geometry": { "type": "Point", "coordinates": [ -73.948202133178697, 40.717318403855799 ] } },
{ "type": "Feature", "properties": { "field_1": 51, "id": 16798, "name": "N 8 St & Driggs Ave", "st_x": -73.95600096, "st_y": 40.71774592, "full": 41, "empty": 153 }, "geometry": { "type": "Point", "coordinates": [ -73.95600096, 40.71774592 ] } },
{ "type": "Feature", "properties": { "field_1": 52, "id": 16799, "name": "Frost St & Meeker St", "st_x": -73.94882, "st_y": 40.71764, "full": 70, "empty": 0 }, "geometry": { "type": "Point", "coordinates": [ -73.94882, 40.71764 ] } },
{ "type": "Feature", "properties": { "field_1": 53, "id": 16800, "name": "Berry St & N 8 St", "st_x": -73.95852515, "st_y": 40.7190095, "full": 40, "empty": 71 }, "geometry": { "type": "Point", "coordinates": [ -73.95852515, 40.7190095 ] } },
{ "type": "Feature", "properties": { "field_1": 54, "id": 16801, "name": "N 6 St & Bedford Ave", "st_x": -73.95850939, "st_y": 40.71745169, "full": 37, "empty": 138 }, "geometry": { "type": "Point", "coordinates": [ -73.95850939, 40.71745169 ] } },
{ "type": "Feature", "properties": { "field_1": 55, "id": 16802, "name": "Graham Ave & Withers St", "st_x": -73.94485918, "st_y": 40.7169811, "full": 136, "empty": 4 }, "geometry": { "type": "Point", "coordinates": [ -73.94485918, 40.7169811 ] } },
{ "type": "Feature", "properties": { "field_1": 56, "id": 16803, "name": "Graham Ave & Herbert St", "st_x": -73.94500379, "st_y": 40.71929301, "full": 101, "empty": 5 }, "geometry": { "type": "Point", "coordinates": [ -73.94500379, 40.71929301 ] } },
{ "type": "Feature", "properties": { "field_1": 57, "id": 16804, "name": "Union Ave & N 12 St", "st_x": -73.95242, "st_y": 40.71924, "full": 99, "empty": 1 }, "geometry": { "type": "Point", "coordinates": [ -73.95242, 40.71924 ] } },
{ "type": "Feature", "properties": { "field_1": 58, "id": 16805, "name": "N Henry St & Richardson St", "st_x": -73.9424469, "st_y": 40.71921585, "full": 101, "empty": 2 }, "geometry": { "type": "Point", "coordinates": [ -73.9424469, 40.71921585 ] } },
{ "type": "Feature", "properties": { "field_1": 59, "id": 16806, "name": "Leonard St & Bayard St", "st_x": -73.94861, "st_y": 40.71928, "full": 94, "empty": 1 }, "geometry": { "type": "Point", "coordinates": [ -73.94861, 40.71928 ] } },
{ "type": "Feature", "properties": { "field_1": 60, "id": 16807, "name": "Leonard St & Manhattan Ave", "st_x": -73.948982656002002, "st_y": 40.721522403393003, "full": 98, "empty": 1 }, "geometry": { "type": "Point", "coordinates": [ -73.948982656002002, 40.721522403393003 ] } },
{ "type": "Feature", "properties": { "field_1": 61, "id": 16808, "name": "Nassau Ave & Newell St", "st_x": -73.947526216507001, "st_y": 40.724812564400203, "full": 112, "empty": 0 }, "geometry": { "type": "Point", "coordinates": [ -73.947526216507001, 40.724812564400203 ] } },
{ "type": "Feature", "properties": { "field_1": 62, "id": 16809, "name": "N 12 St & Bedford Ave", "st_x": -73.95484712, "st_y": 40.72079821, "full": 131, "empty": 3 }, "geometry": { "type": "Point", "coordinates": [ -73.95484712, 40.72079821 ] } },
{ "type": "Feature", "properties": { "field_1": 63, "id": 16810, "name": "Driggs Ave & Lorimer St", "st_x": -73.9504154, "st_y": 40.72179134, "full": 140, "empty": 1 }, "geometry": { "type": "Point", "coordinates": [ -73.9504154, 40.72179134 ] } },
{ "type": "Feature", "properties": { "field_1": 64, "id": 16811, "name": "N 11 St & Wythe Ave", "st_x": -73.95782357, "st_y": 40.72153267, "full": 47, "empty": 7 }, "geometry": { "type": "Point", "coordinates": [ -73.95782357, 40.72153267 ] } },
{ "type": "Feature", "properties": { "field_1": 65, "id": 16812, "name": "KentAve&N7 St", "st_x": -73.96150225, "st_y": 40.72057658, "full": 6, "empty": 8 }, "geometry": { "type": "Point", "coordinates": [ -73.96150225, 40.72057658 ] } },
{ "type": "Feature", "properties": { "field_1": 66, "id": 16813, "name": "N 15 St & Wythe Ave", "st_x": -73.955736, "st_y": 40.724055, "full": 55, "empty": 3 }, "geometry": { "type": "Point", "coordinates": [ -73.955736, 40.724055 ] } },
{ "type": "Feature", "properties": { "field_1": 67, "id": 16814, "name": "Driggs Ave & N Henry St", "st_x": -73.94308, "st_y": 40.72325, "full": 316, "empty": 18 }, "geometry": { "type": "Point", "coordinates": [ -73.94308, 40.72325 ] } },
{ "type": "Feature", "properties": { "field_1": 68, "id": 16815, "name": "Bedford Ave & Nassau Ave", "st_x": -73.95212324000001, "st_y": 40.72311651, "full": 126, "empty": 2 }, "geometry": { "type": "Point", "coordinates": [ -73.95212324, 40.72311651 ] } },
{ "type": "Feature", "properties": { "field_1": 69, "id": 16816, "name": "Nassau Ave & Russell St", "st_x": -73.94434, "st_y": 40.72557, "full": 259, "empty": 15 }, "geometry": { "type": "Point", "coordinates": [ -73.94434, 40.72557 ] } },
{ "type": "Feature", "properties": { "field_1": 70, "id": 16817, "name": "Banker St & Meserole Ave", "st_x": -73.95621, "st_y": 40.72606, "full": 86, "empty": 6 }, "geometry": { "type": "Point", "coordinates": [ -73.95621, 40.72606 ] } },
{ "type": "Feature", "properties": { "field_1": 71, "id": 16818, "name": "Meserole Ave & Manhattan Ave", "st_x": -73.95299117, "st_y": 40.72708584, "full": 213, "empty": 4 }, "geometry": { "type": "Point", "coordinates": [ -73.95299117, 40.72708584 ] } },
{ "type": "Feature", "properties": { "field_1": 72, "id": 16819, "name": "Norman Ave & Leonard St", "st_x": -73.95064893, "st_y": 40.7258483, "full": 157, "empty": 2 }, "geometry": { "type": "Point", "coordinates": [ -73.95064893, 40.7258483 ] } },
{ "type": "Feature", "properties": { "field_1": 73, "id": 16820, "name": "Milton St & Franklin St", "st_x": -73.95779, "st_y": 40.72906, "full": 9, "empty": 37 }, "geometry": { "type": "Point", "coordinates": [ -73.95779, 40.72906 ] } },
{ "type": "Feature", "properties": { "field_1": 74, "id": 16821, "name": "Greenpoint Ave & Manhattan Ave", "st_x": -73.95394, "st_y": 40.73026, "full": 102, "empty": 15 }, "geometry": { "type": "Point", "coordinates": [ -73.95394, 40.73026 ] } },
{ "type": "Feature", "properties": { "field_1": 76, "id": 16823, "name": "India St & Manhattan Ave", "st_x": -73.9550858, "st_y": 40.73232194, "full": 118, "empty": 3 }, "geometry": { "type": "Point", "coordinates": [ -73.9550858, 40.73232194 ] } },
{ "type": "Feature", "properties": { "field_1": 77, "id": 16824, "name": "Huron St & Franklin St", "st_x": -73.95826, "st_y": 40.73266, "full": 143, "empty": 0 }, "geometry": { "type": "Point", "coordinates": [ -73.95826, 40.73266 ] } },
{ "type": "Feature", "properties": { "field_1": 78, "id": 16825, "name": "Franklin St & Dupont St", "st_x": -73.95866, "st_y": 40.73564, "full": 71, "empty": 1 }, "geometry": { "type": "Point", "coordinates": [ -73.95866, 40.73564 ] } },
{ "type": "Feature", "properties": { "field_1": 79, "id": 16826, "name": "McGuinness Blvd & Eagle St", "st_x": -73.95284, "st_y": 40.73555, "full": 91, "empty": 1 }, "geometry": { "type": "Point", "coordinates": [ -73.95284, 40.73555 ] } },
{ "type": "Feature", "properties": { "field_1": 80, "id": 16827, "name": "Vernon Blvd & 50 Ave", "st_x": -73.95411749, "st_y": 40.74232744, "full": 10, "empty": 42 }, "geometry": { "type": "Point", "coordinates": [ -73.95411749, 40.74232744 ] } },
{ "type": "Feature", "properties": { "field_1": 81, "id": 16828, "name": "Center Blvd & Borden Ave", "st_x": -73.96044, "st_y": 40.74161, "full": 19, "empty": 12 }, "geometry": { "type": "Point", "coordinates": [ -73.96044, 40.74161 ] } },
{ "type": "Feature", "properties": { "field_1": 82, "id": 16829, "name": "Jackson Ave & 46 Rd", "st_x": -73.94733276, "st_y": 40.74524768, "full": 31, "empty": 15 }, "geometry": { "type": "Point", "coordinates": [ -73.94733276, 40.74524768 ] } },
{ "type": "Feature", "properties": { "field_1": 83, "id": 16830, "name": "48 Ave & 5 St", "st_x": -73.955873250961304, "st_y": 40.744363287066903, "full": 18, "empty": 9 }, "geometry": { "type": "Point", "coordinates": [ -73.955873250961304, 40.744363287066903 ] } },
{ "type": "Feature", "properties": { "field_1": 84, "id": 16831, "name": "31 St & Thomson Ave", "st_x": -73.93540375000001, "st_y": 40.74469738, "full": 9, "empty": 11 }, "geometry": { "type": "Point", "coordinates": [ -73.93540375, 40.74469738 ] } },
{ "type": "Feature", "properties": { "field_1": 85, "id": 16832, "name": "46 Ave & 5 St", "st_x": -73.95451, "st_y": 40.74731, "full": 120, "empty": 12 }, "geometry": { "type": "Point", "coordinates": [ -73.95451, 40.74731 ] } },
{ "type": "Feature", "properties": { "field_1": 86, "id": 16833, "name": "45 Rd & 11 St", "st_x": -73.94977234, "st_y": 40.74708586, "full": 10, "empty": 28 }, "geometry": { "type": "Point", "coordinates": [ -73.94977234, 40.74708586 ] } },
{ "type": "Feature", "properties": { "field_1": 87, "id": 16834, "name": "44 Dr & Jackson Ave", "st_x": -73.9432635, "st_y": 40.74718234, "full": 19, "empty": 15 }, "geometry": { "type": "Point", "coordinates": [ -73.9432635, 40.74718234 ] } },
{ "type": "Feature", "properties": { "field_1": 88, "id": 16835, "name": "9 St & 44 Rd", "st_x": -73.9521, "st_y": 40.74966, "full": 10, "empty": 9 }, "geometry": { "type": "Point", "coordinates": [ -73.9521, 40.74966 ] } },
{ "type": "Feature", "properties": { "field_1": 89, "id": 16836, "name": "21 St & 43 Ave", "st_x": -73.94594845, "st_y": 40.75052534, "full": 16, "empty": 4 }, "geometry": { "type": "Point", "coordinates": [ -73.94594845, 40.75052534 ] } },
{ "type": "Feature", "properties": { "field_1": 90, "id": 16837, "name": "Queens Plaza North & Crescent St", "st_x": -73.94073717000001, "st_y": 40.75110165, "full": 40, "empty": 10 }, "geometry": { "type": "Point", "coordinates": [ -73.94073717, 40.75110165 ] } },
{ "type": "Feature", "properties": { "field_1": 91, "id": 16838, "name": "21 St & Queens Plaza North", "st_x": -73.94335788, "st_y": 40.75325964, "full": 2, "empty": 0 }, "geometry": { "type": "Point", "coordinates": [ -73.94335788, 40.75325964 ] } },
{ "type": "Feature", "properties": { "field_1": 92, "id": 16839, "name": "E 68 St & 3 Ave", "st_x": -73.962246179580703, "st_y": 40.767128403495398, "full": 176, "empty": 1 }, "geometry": { "type": "Point", "coordinates": [ -73.962246179580703, 40.767128403495398 ] } },
{ "type": "Feature", "properties": { "field_1": 93, "id": 16840, "name": "E 59 St & Madison Ave", "st_x": -73.97109243, "st_y": 40.76350532, "full": 46, "empty": 79 }, "geometry": { "type": "Point", "coordinates": [ -73.97109243, 40.76350532 ] } },
{ "type": "Feature", "properties": { "field_1": 95, "id": 16842, "name": "3 Ave & E 62 St", "st_x": -73.96526895, "st_y": 40.76312584, "full": 180, "empty": 9 }, "geometry": { "type": "Point", "coordinates": [ -73.96526895, 40.76312584 ] } },
{ "type": "Feature", "properties": { "field_1": 96, "id": 16843, "name": "E 75 St & 3 Ave", "st_x": -73.95772297000001, "st_y": 40.77112927, "full": 232, "empty": 8 }, "geometry": { "type": "Point", "coordinates": [ -73.95772297, 40.77112927 ] } },
{ "type": "Feature", "properties": { "field_1": 97, "id": 16844, "name": "5 Ave & E 63 St", "st_x": -73.97147595, "st_y": 40.76650452, "full": 51, "empty": 13 }, "geometry": { "type": "Point", "coordinates": [ -73.97147595, 40.76650452 ] } },
{ "type": "Feature", "properties": { "field_1": 98, "id": 16845, "name": "5 Ave & E 73 St", "st_x": -73.96685276, "st_y": 40.77282817, "full": 168, "empty": 37 }, "geometry": { "type": "Point", "coordinates": [ -73.96685276, 40.77282817 ] } },
{ "type": "Feature", "properties": { "field_1": 99, "id": 16846, "name": "E 77 St & Park Ave", "st_x": -73.961752653121906, "st_y": 40.774405455002999, "full": 80, "empty": 1 }, "geometry": { "type": "Point", "coordinates": [ -73.961752653121906, 40.774405455002999 ] } },
{ "type": "Feature", "properties": { "field_1": 100, "id": 16847, "name": "E 72 St & Park Ave", "st_x": -73.964094221591907, "st_y": 40.771182875406602, "full": 214, "empty": 12 }, "geometry": { "type": "Point", "coordinates": [ -73.964094221591907, 40.771182875406602 ] } },
{ "type": "Feature", "properties": { "field_1": 101, "id": 16848, "name": "1 Ave & E 78 St", "st_x": -73.9535166, "st_y": 40.77140426, "full": 102, "empty": 32 }, "geometry": { "type": "Point", "coordinates": [ -73.9535166, 40.77140426 ] } },
{ "type": "Feature", "properties": { "field_1": 102, "id": 16849, "name": "1 Ave & E 68 St", "st_x": -73.95818491, "st_y": 40.76500525, "full": 106, "empty": 20 }, "geometry": { "type": "Point", "coordinates": [ -73.95818491, 40.76500525 ] } },
{ "type": "Feature", "properties": { "field_1": 103, "id": 16850, "name": "1 Ave & E 62 St", "st_x": -73.96094022, "st_y": 40.7612274, "full": 221, "empty": 6 }, "geometry": { "type": "Point", "coordinates": [ -73.96094022, 40.7612274 ] } },
{ "type": "Feature", "properties": { "field_1": 104, "id": 16851, "name": "5 Ave & E 78 St", "st_x": -73.963887691497803, "st_y": 40.776828634399699, "full": 148, "empty": 11 }, "geometry": { "type": "Point", "coordinates": [ -73.963887691497803, 40.776828634399699 ] } },
{ "type": "Feature", "properties": { "field_1": 105, "id": 16852, "name": "E 81 St & Park Ave", "st_x": -73.9590097, "st_y": 40.77677702, "full": 191, "empty": 34 }, "geometry": { "type": "Point", "coordinates": [ -73.9590097, 40.77677702 ] } },
{ "type": "Feature", "properties": { "field_1": 106, "id": 16853, "name": "E 84 St & Park Ave", "st_x": -73.95772073000001, "st_y": 40.77862688, "full": 113, "empty": 9 }, "geometry": { "type": "Point", "coordinates": [ -73.95772073, 40.77862688 ] } },
{ "type": "Feature", "properties": { "field_1": 107, "id": 16854, "name": "E 81 St & 3 Ave", "st_x": -73.9567526, "st_y": 40.77573034, "full": 156, "empty": 4 }, "geometry": { "type": "Point", "coordinates": [ -73.9567526, 40.77573034 ] } },
{ "type": "Feature", "properties": { "field_1": 108, "id": 16855, "name": "E 85 St & 3 Ave", "st_x": -73.95407149, "st_y": 40.77801203, "full": 123, "empty": 35 }, "geometry": { "type": "Point", "coordinates": [ -73.95407149, 40.77801203 ] } },
{ "type": "Feature", "properties": { "field_1": 109, "id": 16856, "name": "E 84 St & 1 Ave", "st_x": -73.95068615, "st_y": 40.77565541, "full": 151, "empty": 36 }, "geometry": { "type": "Point", "coordinates": [ -73.95068615, 40.77565541 ] } },
{ "type": "Feature", "properties": { "field_1": 110, "id": 16857, "name": "E 82 St & 2 Ave", "st_x": -73.95324922, "st_y": 40.77517793, "full": 22, "empty": 0 }, "geometry": { "type": "Point", "coordinates": [ -73.95324922, 40.77517793 ] } },
{ "type": "Feature", "properties": { "field_1": 111, "id": 16858, "name": "E 85 St & York Ave", "st_x": -73.94803392, "st_y": 40.77536905, "full": 207, "empty": 6 }, "geometry": { "type": "Point", "coordinates": [ -73.94803392, 40.77536905 ] } },
{ "type": "Feature", "properties": { "field_1": 112, "id": 16859, "name": "E 81 St & York Ave", "st_x": -73.94989233, "st_y": 40.7728384, "full": 202, "empty": 5 }, "geometry": { "type": "Point", "coordinates": [ -73.94989233, 40.7728384 ] } },
{ "type": "Feature", "properties": { "field_1": 113, "id": 16860, "name": "3 Ave & E 71 St", "st_x": -73.96119945, "st_y": 40.76873687, "full": 105, "empty": 0 }, "geometry": { "type": "Point", "coordinates": [ -73.96119945, 40.76873687 ] } },
{ "type": "Feature", "properties": { "field_1": 114, "id": 16861, "name": "E 71 St & 2 Ave", "st_x": -73.959102630615206, "st_y": 40.768175467422502, "full": 180, "empty": 20 }, "geometry": { "type": "Point", "coordinates": [ -73.959102630615206, 40.768175467422502 ] } },
{ "type": "Feature", "properties": { "field_1": 115, "id": 16862, "name": "E 77 St & 3 Ave", "st_x": -73.95856158, "st_y": 40.77314236, "full": 153, "empty": 1 }, "geometry": { "type": "Point", "coordinates": [ -73.95856158, 40.77314236 ] } },
{ "type": "Feature", "properties": { "field_1": 116, "id": 16863, "name": "Lexington Ave & E 63 St", "st_x": -73.96648977, "st_y": 40.76440023, "full": 102, "empty": 26 }, "geometry": { "type": "Point", "coordinates": [ -73.96648977, 40.76440023 ] } },
{ "type": "Feature", "properties": { "field_1": 117, "id": 16864, "name": "E 72 St & York Ave", "st_x": -73.95348296, "st_y": 40.76663814, "full": 175, "empty": 12 }, "geometry": { "type": "Point", "coordinates": [ -73.95348296, 40.76663814 ] } },
{ "type": "Feature", "properties": { "field_1": 118, "id": 16865, "name": "East End Ave & E 86 St", "st_x": -73.94446054, "st_y": 40.77518615, "full": 93, "empty": 6 }, "geometry": { "type": "Point", "coordinates": [ -73.94446054, 40.77518615 ] } },
{ "type": "Feature", "properties": { "field_1": 119, "id": 16866, "name": "W 63 St & Broadway", "st_x": -73.98261428000001, "st_y": 40.77163851, "full": 340, "empty": 9 }, "geometry": { "type": "Point", "coordinates": [ -73.98261428, 40.77163851 ] } },
{ "type": "Feature", "properties": { "field_1": 120, "id": 16867, "name": "W 67 St & Broadway", "st_x": -73.98266566, "st_y": 40.77492513, "full": 316, "empty": 6 }, "geometry": { "type": "Point", "coordinates": [ -73.98266566, 40.77492513 ] } },
{ "type": "Feature", "properties": { "field_1": 121, "id": 16868, "name": "Central Park West & W 76 St", "st_x": -73.97374737, "st_y": 40.77896784, "full": 248, "empty": 5 }, "geometry": { "type": "Point", "coordinates": [ -73.97374737, 40.77896784 ] } },
{ "type": "Feature", "properties": { "field_1": 122, "id": 16869, "name": "W 76 St & Columbus Ave", "st_x": -73.977285325527205, "st_y": 40.780183972423899, "full": 243, "empty": 3 }, "geometry": { "type": "Point", "coordinates": [ -73.977285325527205, 40.780183972423899 ] } },
{ "type": "Feature", "properties": { "field_1": 123, "id": 16870, "name": "W 78 St & Broadway", "st_x": -73.98093133, "st_y": 40.78339981, "full": 245, "empty": 3 }, "geometry": { "type": "Point", "coordinates": [ -73.98093133, 40.78339981 ] } },
{ "type": "Feature", "properties": { "field_1": 124, "id": 16871, "name": "Central Park West & W 68 St", "st_x": -73.97782542, "st_y": 40.7734066, "full": 218, "empty": 8 }, "geometry": { "type": "Point", "coordinates": [ -73.97782542, 40.7734066 ] } },
{ "type": "Feature", "properties": { "field_1": 125, "id": 16872, "name": "Columbus Ave & W 72 St", "st_x": -73.97898475, "st_y": 40.7770575, "full": 265, "empty": 4 }, "geometry": { "type": "Point", "coordinates": [ -73.97898475, 40.7770575 ] } },
{ "type": "Feature", "properties": { "field_1": 126, "id": 16873, "name": "Central Park West & W 72 St", "st_x": -73.976205736398697, "st_y": 40.775793766836699, "full": 186, "empty": 6 }, "geometry": { "type": "Point", "coordinates": [ -73.976205736398697, 40.775793766836699 ] } },
{ "type": "Feature", "properties": { "field_1": 127, "id": 16874, "name": "Riverside Dr & W 72 St", "st_x": -73.985624313354506, "st_y": 40.780577990103303, "full": 182, "empty": 6 }, "geometry": { "type": "Point", "coordinates": [ -73.985624313354506, 40.780577990103303 ] } },
{ "type": "Feature", "properties": { "field_1": 128, "id": 16875, "name": "Amsterdam Ave & W 73 St", "st_x": -73.980930447578402, "st_y": 40.779668090073102, "full": 265, "empty": 3 }, "geometry": { "type": "Point", "coordinates": [ -73.980930447578402, 40.779668090073102 ] } },
{ "type": "Feature", "properties": { "field_1": 129, "id": 16876, "name": "Central Park West & W 85 St", "st_x": -73.96961715, "st_y": 40.78472675, "full": 181, "empty": 20 }, "geometry": { "type": "Point", "coordinates": [ -73.96961715, 40.78472675 ] } },
{ "type": "Feature", "properties": { "field_1": 130, "id": 16877, "name": "Riverside Dr & W 82 St", "st_x": -73.98128127, "st_y": 40.78720869, "full": 170, "empty": 3 }, "geometry": { "type": "Point", "coordinates": [ -73.98128127, 40.78720869 ] } },
{ "type": "Feature", "properties": { "field_1": 131, "id": 16878, "name": "W 84 St & Columbus Ave", "st_x": -73.97283406, "st_y": 40.78499979, "full": 306, "empty": 10 }, "geometry": { "type": "Point", "coordinates": [ -73.97283406, 40.78499979 ] } },
{ "type": "Feature", "properties": { "field_1": 132, "id": 16879, "name": "Amsterdam Ave & W 82 St", "st_x": -73.97667321, "st_y": 40.78524672, "full": 238, "empty": 4 }, "geometry": { "type": "Point", "coordinates": [ -73.97667321, 40.78524672 ] } },
{ "type": "Feature", "properties": { "field_1": 133, "id": 16880, "name": "W 74 St & Columbus Ave", "st_x": -73.97754961, "st_y": 40.7785669, "full": 310, "empty": 3 }, "geometry": { "type": "Point", "coordinates": [ -73.97754961, 40.7785669 ] } },
{ "type": "Feature", "properties": { "field_1": 134, "id": 16881, "name": "Riverside Blvd & W 67 St", "st_x": -73.988885879516602, "st_y": 40.777507027547998, "full": 144, "empty": 16 }, "geometry": { "type": "Point", "coordinates": [ -73.988885879516602, 40.777507027547998 ] } },
{ "type": "Feature", "properties": { "field_1": 135, "id": 16883, "name": "W 70 St & Amsterdam Ave", "st_x": -73.98288594, "st_y": 40.77748046, "full": 365, "empty": 7 }, "geometry": { "type": "Point", "coordinates": [ -73.98288594, 40.77748046 ] } },
{ "type": "Feature", "properties": { "field_1": 136, "id": 16884, "name": "W 64 St & West End Ave", "st_x": -73.98753759, "st_y": 40.77452835, "full": 281, "empty": 12 }, "geometry": { "type": "Point", "coordinates": [ -73.98753759, 40.77452835 ] } },
{ "type": "Feature", "properties": { "field_1": 137, "id": 16885, "name": "W 84 St & Broadway", "st_x": -73.977112, "st_y": 40.7867947, "full": 241, "empty": 11 }, "geometry": { "type": "Point", "coordinates": [ -73.977112, 40.7867947 ] } },
{ "type": "Feature", "properties": { "field_1": 138, "id": 16886, "name": "Riverside Dr & W 78 St", "st_x": -73.98362492, "st_y": 40.78414472, "full": 133, "empty": 6 }, "geometry": { "type": "Point", "coordinates": [ -73.98362492, 40.78414472 ] } },
{ "type": "Feature", "properties": { "field_1": 139, "id": 16888, "name": "Park Ave & Marcus Garvey Blvd", "st_x": -73.941342, "st_y": 40.698617, "full": 21, "empty": 3 }, "geometry": { "type": "Point", "coordinates": [ -73.941342, 40.698617 ] } },
{ "type": "Feature", "properties": { "field_1": 140, "id": 16946, "name": "Brooklyn Bridge Park - Pier 2", "st_x": -73.99712, "st_y": 40.69878, "full": 36, "empty": 5 }, "geometry": { "type": "Point", "coordinates": [ -73.99712, 40.69878 ] } },
{ "type": "Feature", "properties": { "field_1": 141, "id": 16982, "name": "Soissons Landing", "st_x": -74.016398, "st_y": 40.692609, "full": 8, "empty": 4 }, "geometry": { "type": "Point", "coordinates": [ -74.016398, 40.692609 ] } },
{ "type": "Feature", "properties": { "field_1": 142, "id": 16983, "name": "Yankee Ferry Terminal", "st_x": -74.016966, "st_y": 40.686931, "full": 3, "empty": 10 }, "geometry": { "type": "Point", "coordinates": [ -74.016966, 40.686931 ] } },
{ "type": "Feature", "properties": { "field_1": 143, "id": 16987, "name": "Exchange Place", "st_x": -74.0334588, "st_y": 40.7162469, "full": 24, "empty": 38 }, "geometry": { "type": "Point", "coordinates": [ -74.0334588, 40.7162469 ] } },
{ "type": "Feature", "properties": { "field_1": 144, "id": 16988, "name": "Paulus Hook", "st_x": -74.0335519, "st_y": 40.7141454, "full": 18, "empty": 41 }, "geometry": { "type": "Point", "coordinates": [ -74.0335519, 40.7141454 ] } },
{ "type": "Feature", "properties": { "field_1": 145, "id": 16989, "name": "City Hall", "st_x": -74.043845, "st_y": 40.7177325, "full": 16, "empty": 23 }, "geometry": { "type": "Point", "coordinates": [ -74.043845, 40.7177325 ] } },
{ "type": "Feature", "properties": { "field_1": 146, "id": 16990, "name": "Grove St PATH", "st_x": -74.0431174635887, "st_y": 40.719586116471703, "full": 30, "empty": 58 }, "geometry": { "type": "Point", "coordinates": [ -74.0431174635887, 40.719586116471703 ] } },
{ "type": "Feature", "properties": { "field_1": 147, "id": 16991, "name": "Warren St", "st_x": -74.03805095, "st_y": 40.7211236, "full": 14, "empty": 3 }, "geometry": { "type": "Point", "coordinates": [ -74.03805095, 40.7211236 ] } },
{ "type": "Feature", "properties": { "field_1": 148, "id": 16992, "name": "NJCU", "st_x": -74.0858489, "st_y": 40.7101087, "full": 6, "empty": 2 }, "geometry": { "type": "Point", "coordinates": [ -74.0858489, 40.7101087 ] } },
{ "type": "Feature", "properties": { "field_1": 149, "id": 16993, "name": "West Side Light Rail", "st_x": -74.0887723, "st_y": 40.714402, "full": 5, "empty": 2 }, "geometry": { "type": "Point", "coordinates": [ -74.0887723, 40.714402 ] } },
{ "type": "Feature", "properties": { "field_1": 150, "id": 16994, "name": "Garfield Ave Station", "st_x": -74.070038795471206, "st_y": 40.710467023379699, "full": 13, "empty": 1 }, "geometry": { "type": "Point", "coordinates": [ -74.070038795471206, 40.710467023379699 ] } },
{ "type": "Feature", "properties": { "field_1": 151, "id": 16995, "name": "Union St", "st_x": -74.0836394, "st_y": 40.7182113, "full": 4, "empty": 3 }, "geometry": { "type": "Point", "coordinates": [ -74.0836394, 40.7182113 ] } },
{ "type": "Feature", "properties": { "field_1": 152, "id": 16996, "name": "Liberty Light Rail", "st_x": -74.0557013, "st_y": 40.7112423, "full": 22, "empty": 3 }, "geometry": { "type": "Point", "coordinates": [ -74.0557013, 40.7112423 ] } },
{ "type": "Feature", "properties": { "field_1": 153, "id": 16997, "name": "Lincoln Park", "st_x": -74.078405946493106, "st_y": 40.724605099886901, "full": 7, "empty": 6 }, "geometry": { "type": "Point", "coordinates": [ -74.078405946493106, 40.724605099886901 ] } },
{ "type": "Feature", "properties": { "field_1": 154, "id": 16998, "name": "McGinley Square", "st_x": -74.067622125148802, "st_y": 40.725339925355797, "full": 61, "empty": 7 }, "geometry": { "type": "Point", "coordinates": [ -74.067622125148802, 40.725339925355797 ] } },
{ "type": "Feature", "properties": { "field_1": 155, "id": 16999, "name": "Sip Ave", "st_x": -74.063783884048505, "st_y": 40.730742625306597, "full": 41, "empty": 19 }, "geometry": { "type": "Point", "coordinates": [ -74.063783884048505, 40.730742625306597 ] } },
{ "type": "Feature", "properties": { "field_1": 156, "id": 17000, "name": "Riverview Park", "st_x": -74.0439909, "st_y": 40.7443187, "full": 6, "empty": 2 }, "geometry": { "type": "Point", "coordinates": [ -74.0439909, 40.7443187 ] } },
{ "type": "Feature", "properties": { "field_1": 157, "id": 17001, "name": "North St", "st_x": -74.044725, "st_y": 40.752559, "full": 13, "empty": 1 }, "geometry": { "type": "Point", "coordinates": [ -74.044725, 40.752559 ] } },
{ "type": "Feature", "properties": { "field_1": 158, "id": 17002, "name": "Heights Elevator", "st_x": -74.040443301200895, "st_y": 40.748715945380198, "full": 16, "empty": 1 }, "geometry": { "type": "Point", "coordinates": [ -74.040443301200895, 40.748715945380198 ] } },
{ "type": "Feature", "properties": { "field_1": 159, "id": 17003, "name": "Newport Pkwy", "st_x": -74.0321082, "st_y": 40.7287448, "full": 23, "empty": 23 }, "geometry": { "type": "Point", "coordinates": [ -74.0321082, 40.7287448 ] } },
{ "type": "Feature", "properties": { "field_1": 160, "id": 17004, "name": "MLK Light Rail", "st_x": -74.0788855, "st_y": 40.7111305, "full": 4, "empty": 2 }, "geometry": { "type": "Point", "coordinates": [ -74.0788855, 40.7111305 ] } },
{ "type": "Feature", "properties": { "field_1": 161, "id": 17005, "name": "Dey St", "st_x": -74.066921, "st_y": 40.737711, "full": 4, "empty": 3 }, "geometry": { "type": "Point", "coordinates": [ -74.066921, 40.737711 ] } },
{ "type": "Feature", "properties": { "field_1": 162, "id": 17006, "name": "Newport PATH", "st_x": -74.0337589, "st_y": 40.7272235, "full": 12, "empty": 62 }, "geometry": { "type": "Point", "coordinates": [ -74.0337589, 40.7272235 ] } },
{ "type": "Feature", "properties": { "field_1": 163, "id": 17007, "name": "Hamilton Park", "st_x": -74.044247311000007, "st_y": 40.727595966000003, "full": 20, "empty": 7 }, "geometry": { "type": "Point", "coordinates": [ -74.044247311, 40.727595966 ] } },
{ "type": "Feature", "properties": { "field_1": 164, "id": 17008, "name": "Port Liberte", "st_x": -74.074741, "st_y": 40.687985, "full": 1, "empty": 1 }, "geometry": { "type": "Point", "coordinates": [ -74.074741, 40.687985 ] } },
{ "type": "Feature", "properties": { "field_1": 165, "id": 17009, "name": "JC Medical Center", "st_x": -74.049637913703904, "st_y": 40.716539780991901, "full": 7, "empty": 2 }, "geometry": { "type": "Point", "coordinates": [ -74.049637913703904, 40.716539780991901 ] } },
{ "type": "Feature", "properties": { "field_1": 166, "id": 17010, "name": "Hilltop", "st_x": -74.0575736, "st_y": 40.7311689, "full": 33, "empty": 2 }, "geometry": { "type": "Point", "coordinates": [ -74.0575736, 40.7311689 ] } },
{ "type": "Feature", "properties": { "field_1": 167, "id": 17011, "name": "Oakland Ave", "st_x": -74.0524783, "st_y": 40.7376037, "full": 16, "empty": 2 }, "geometry": { "type": "Point", "coordinates": [ -74.0524783, 40.7376037 ] } },
{ "type": "Feature", "properties": { "field_1": 168, "id": 17012, "name": "Journal Square", "st_x": -74.062468448999994, "st_y": 40.733040553000002, "full": 1, "empty": 1 }, "geometry": { "type": "Point", "coordinates": [ -74.06246844899999, 40.733040553 ] } },
{ "type": "Feature", "properties": { "field_1": 169, "id": 17013, "name": "Brunswick St", "st_x": -74.0506564, "st_y": 40.7241765, "full": 21, "empty": 6 }, "geometry": { "type": "Point", "coordinates": [ -74.0506564, 40.7241765 ] } },
{ "type": "Feature", "properties": { "field_1": 170, "id": 17014, "name": "Pershing Field", "st_x": -74.051788633000001, "st_y": 40.742677141000001, "full": 13, "empty": 3 }, "geometry": { "type": "Point", "coordinates": [ -74.051788633, 40.742677141 ] } },
{ "type": "Feature", "properties": { "field_1": 171, "id": 17015, "name": "Newark Ave", "st_x": -74.046304543000005, "st_y": 40.72152515, "full": 36, "empty": 8 }, "geometry": { "type": "Point", "coordinates": [ -74.046304543, 40.72152515 ] } },
{ "type": "Feature", "properties": { "field_1": 172, "id": 17016, "name": "Christ Hospital", "st_x": -74.050443635999997, "st_y": 40.734785818, "full": 20, "empty": 1 }, "geometry": { "type": "Point", "coordinates": [ -74.050443636, 40.734785818 ] } },
{ "type": "Feature", "properties": { "field_1": 173, "id": 17017, "name": "Van Vorst Park", "st_x": -74.047726624999996, "st_y": 40.71848892, "full": 23, "empty": 4 }, "geometry": { "type": "Point", "coordinates": [ -74.047726625, 40.71848892 ] } },
{ "type": "Feature", "properties": { "field_1": 174, "id": 17018, "name": "Essex Light Rail", "st_x": -74.0364857, "st_y": 40.7127742, "full": 15, "empty": 10 }, "geometry": { "type": "Point", "coordinates": [ -74.0364857, 40.7127742 ] } },
{ "type": "Feature", "properties": { "field_1": 175, "id": 17019, "name": "Central Ave", "st_x": -74.0492509, "st_y": 40.7467299, "full": 14, "empty": 1 }, "geometry": { "type": "Point", "coordinates": [ -74.0492509, 40.7467299 ] } },
{ "type": "Feature", "properties": { "field_1": 176, "id": 17020, "name": "Columbia Park", "st_x": -74.0969366, "st_y": 40.6970299, "full": 4, "empty": 2 }, "geometry": { "type": "Point", "coordinates": [ -74.0969366, 40.6970299 ] } },
{ "type": "Feature", "properties": { "field_1": 177, "id": 17021, "name": "Bayside Park", "st_x": -74.082079678, "st_y": 40.698650544000003, "full": 5, "empty": 3 }, "geometry": { "type": "Point", "coordinates": [ -74.082079678, 40.698650544 ] } },
{ "type": "Feature", "properties": { "field_1": 178, "id": 17092, "name": "5 Corners Library", "st_x": -74.059503078460693, "st_y": 40.7349610200095, "full": 18, "empty": 2 }, "geometry": { "type": "Point", "coordinates": [ -74.059503078460693, 40.7349610200095 ] } },
{ "type": "Feature", "properties": { "field_1": 179, "id": 17094, "name": "47 Ave & 31 St", "st_x": -73.93561, "st_y": 40.743, "full": 2, "empty": 35 }, "geometry": { "type": "Point", "coordinates": [ -73.93561, 40.743 ] } },
{ "type": "Feature", "properties": { "field_1": 180, "id": 17101, "name": "Hanson Pl & St Felix St", "st_x": -73.977113664150195, "st_y": 40.685159599891797, "full": 24, "empty": 7 }, "geometry": { "type": "Point", "coordinates": [ -73.977113664150195, 40.685159599891797 ] } },
{ "type": "Feature", "properties": { "field_1": 181, "id": 17102, "name": "E 55 St & 3 Ave", "st_x": -73.968653976917295, "st_y": 40.758996559605102, "full": 61, "empty": 79 }, "geometry": { "type": "Point", "coordinates": [ -73.968653976917295, 40.758996559605102 ] } },
{ "type": "Feature", "properties": { "field_1": 182, "id": 17105, "name": "W 13 St & Hudson St", "st_x": -74.005138725042301, "st_y": 40.739973541034097, "full": 26, "empty": 203 }, "geometry": { "type": "Point", "coordinates": [ -74.005138725042301, 40.739973541034097 ] } },
{ "type": "Feature", "properties": { "field_1": 183, "id": 17109, "name": "Baldwin at Montgomery", "st_x": -74.0641943, "st_y": 40.7236589, "full": 22, "empty": 2 }, "geometry": { "type": "Point", "coordinates": [ -74.0641943, 40.7236589 ] } },
{ "type": "Feature", "properties": { "field_1": 184, "id": 17275, "name": "W 82 St & Central Park West", "st_x": -73.97137, "st_y": 40.78275, "full": 247, "empty": 5 }, "geometry": { "type": "Point", "coordinates": [ -73.97137, 40.78275 ] } },
{ "type": "Feature", "properties": { "field_1": 185, "id": 17282, "name": "Marcy Ave & MacDonough St", "st_x": -73.946249485015997, "st_y": 40.680617684555003, "full": 28, "empty": 0 }, "geometry": { "type": "Point", "coordinates": [ -73.946249485015997, 40.680617684555003 ] } },
{ "type": "Feature", "properties": { "field_1": 186, "id": 17316, "name": "E 67 St & Park Ave", "st_x": -73.965920805931106, "st_y": 40.7678008014813, "full": 170, "empty": 2 }, "geometry": { "type": "Point", "coordinates": [ -73.965920805931106, 40.7678008014813 ] } },
{ "type": "Feature", "properties": { "field_1": 187, "id": 17320, "name": "Penn Station Valet", "st_x": -73.996924459934206, "st_y": 40.751283596962303, "full": 331, "empty": 174 }, "geometry": { "type": "Point", "coordinates": [ -73.996924459934206, 40.751283596962303 ] } },
{ "type": "Feature", "properties": { "field_1": 188, "id": 17326, "name": "Bond St & Fulton St", "st_x": -73.983042687177701, "st_y": 40.6896218879033, "full": 13, "empty": 21 }, "geometry": { "type": "Point", "coordinates": [ -73.983042687177701, 40.6896218879033 ] } },
{ "type": "Feature", "properties": { "field_1": 189, "id": 17391, "name": "E 48 St & 5 Ave", "st_x": -73.978059142828002, "st_y": 40.757245679117297, "full": 75, "empty": 72 }, "geometry": { "type": "Point", "coordinates": [ -73.978059142828002, 40.757245679117297 ] } },
{ "type": "Feature", "properties": { "field_1": 190, "id": 17405, "name": "E 41 St & Madison Ave", "st_x": -73.979921936988802, "st_y": 40.752165280622002, "full": 161, "empty": 20 }, "geometry": { "type": "Point", "coordinates": [ -73.979921936988802, 40.752165280622002 ] } },
{ "type": "Feature", "properties": { "field_1": 191, "id": 17445, "name": "E 40 St & Madison Ave", "st_x": -73.980431556702001, "st_y": 40.751593684511001, "full": 5, "empty": 1 }, "geometry": { "type": "Point", "coordinates": [ -73.980431556702001, 40.751593684511001 ] } },
{ "type": "Feature", "properties": { "field_1": 192, "id": 17479, "name": "21 St & 41 Ave", "st_x": -73.942676782608004, "st_y": 40.753833434376197, "full": 12, "empty": 13 }, "geometry": { "type": "Point", "coordinates": [ -73.942676782608004, 40.753833434376197 ] } },
{ "type": "Feature", "properties": { "field_1": 193, "id": 17509, "name": "W 42 St & Dyer Ave", "st_x": -73.993799686431899, "st_y": 40.7589848139963, "full": 148, "empty": 37 }, "geometry": { "type": "Point", "coordinates": [ -73.993799686431899, 40.7589848139963 ] } },
{ "type": "Feature", "properties": { "field_1": 194, "id": 17556, "name": "E 80 St & 2 Ave", "st_x": -73.954395353794098, "st_y": 40.773913902381203, "full": 192, "empty": 1 }, "geometry": { "type": "Point", "coordinates": [ -73.954395353794098, 40.773913902381203 ] } },
{ "type": "Feature", "properties": { "field_1": 195, "id": 17575, "name": "Monroe St & Tompkins Ave", "st_x": -73.944694, "st_y": 40.686203, "full": 95, "empty": 3 }, "geometry": { "type": "Point", "coordinates": [ -73.944694, 40.686203 ] } },
{ "type": "Feature", "properties": { "field_1": 196, "id": 17604, "name": "Schermerhorn St & Court St", "st_x": -73.991833627223997, "st_y": 40.6910292567797, "full": 24, "empty": 12 }, "geometry": { "type": "Point", "coordinates": [ -73.991833627223997, 40.6910292567797 ] } },
{ "type": "Feature", "properties": { "field_1": 197, "id": 17607, "name": "E 58 St & 1 Ave", "st_x": -73.962262272834806, "st_y": 40.7589238637769, "full": 118, "empty": 7 }, "geometry": { "type": "Point", "coordinates": [ -73.962262272834806, 40.7589238637769 ] } },
{ "type": "Feature", "properties": { "field_1": 198, "id": 17631, "name": "NYCBS Depot - FAR", "st_x": -73.996764, "st_y": 40.751483, "full": 1, "empty": 0 }, "geometry": { "type": "Point", "coordinates": [ -73.996764, 40.751483 ] } },
{ "type": "Feature", "properties": { "field_1": 199, "id": 17640, "name": "University Pl & E 8 St", "st_x": -73.994903415441499, "st_y": 40.731437240852301, "full": 69, "empty": 72 }, "geometry": { "type": "Point", "coordinates": [ -73.994903415441499, 40.731437240852301 ] } },
{ "type": "Feature", "properties": { "field_1": 200, "id": 18738, "name": "Montague St & Clinton St", "st_x": -73.992300331592602, "st_y": 40.694281141397298, "full": 36, "empty": 35 }, "geometry": { "type": "Point", "coordinates": [ -73.992300331592602, 40.694281141397298 ] } },
{ "type": "Feature", "properties": { "field_1": 201, "id": 18792, "name": "Verona Pl & Fulton St", "st_x": -73.947679102420807, "st_y": 40.680356084043403, "full": 21, "empty": 5 }, "geometry": { "type": "Point", "coordinates": [ -73.947679102420807, 40.680356084043403 ] } },
{ "type": "Feature", "properties": { "field_1": 203, "id": 19003, "name": "Pier 40 - Hudson River Park", "st_x": -74.011295735836001, "st_y": 40.727714077777797, "full": 31, "empty": 97 }, "geometry": { "type": "Point", "coordinates": [ -74.011295735836001, 40.727714077777797 ] } },
{ "type": "Feature", "properties": { "field_1": 204, "id": 19090, "name": "W 27 St & 10 Ave", "st_x": -74.002184271812396, "st_y": 40.750181563256803, "full": 21, "empty": 49 }, "geometry": { "type": "Point", "coordinates": [ -74.002184271812396, 40.750181563256803 ] } },
{ "type": "Feature", "properties": { "field_1": 206, "id": 19092, "name": "Mercer St & Bleecker St", "st_x": -73.996621370315495, "st_y": 40.727063633483098, "full": 9, "empty": 93 }, "geometry": { "type": "Point", "coordinates": [ -73.996621370315495, 40.727063633483098 ] } },
{ "type": "Feature", "properties": { "field_1": 207, "id": 19093, "name": "Cooper Square & E 7 St", "st_x": -73.990868031978593, "st_y": 40.729236499100097, "full": 44, "empty": 9 }, "geometry": { "type": "Point", "coordinates": [ -73.990868031978593, 40.729236499100097 ] } },
{ "type": "Feature", "properties": { "field_1": 208, "id": 19094, "name": "E 61 St & Park Ave", "st_x": -73.969104588031797, "st_y": 40.764210071690599, "full": 7, "empty": 42 }, "geometry": { "type": "Point", "coordinates": [ -73.969104588031797, 40.764210071690599 ] } },
{ "type": "Feature", "properties": { "field_1": 209, "id": 19095, "name": "E 2 St & 2 Ave", "st_x": -73.989443778991699, "st_y": 40.724563429043201, "full": 43, "empty": 12 }, "geometry": { "type": "Point", "coordinates": [ -73.989443778991699, 40.724563429043201 ] } },
{ "type": "Feature", "properties": { "field_1": 210, "id": 19096, "name": "Morris Canal", "st_x": -74.038525521755204, "st_y": 40.712418823756899, "full": 30, "empty": 12 }, "geometry": { "type": "Point", "coordinates": [ -74.038525521755204, 40.712418823756899 ] } },
{ "type": "Feature", "properties": { "field_1": 211, "id": 19097, "name": "Lafayette Park", "st_x": -74.062858521938296, "st_y": 40.7134638266919, "full": 15, "empty": 5 }, "geometry": { "type": "Point", "coordinates": [ -74.062858521938296, 40.7134638266919 ] } },
{ "type": "Feature", "properties": { "field_1": 212, "id": 19098, "name": "Brunswick & 6th", "st_x": -74.050388932228103, "st_y": 40.726011729646302, "full": 12, "empty": 1 }, "geometry": { "type": "Point", "coordinates": [ -74.050388932228103, 40.726011729646302 ] } },
{ "type": "Feature", "properties": { "field_1": 213, "id": 19099, "name": "Jersey & 6th St", "st_x": -74.045571684837299, "st_y": 40.7252891078113, "full": 25, "empty": 2 }, "geometry": { "type": "Point", "coordinates": [ -74.045571684837299, 40.7252891078113 ] } },
{ "type": "Feature", "properties": { "field_1": 214, "id": 19100, "name": "Danforth Light Rail", "st_x": -74.088012278080001, "st_y": 40.6926399661833, "full": 1, "empty": 0 }, "geometry": { "type": "Point", "coordinates": [ -74.088012278080001, 40.6926399661833 ] } },
{ "type": "Feature", "properties": { "field_1": 215, "id": 19101, "name": "Jersey & 3rd", "st_x": -74.045952558517399, "st_y": 40.723331586464397, "full": 22, "empty": 7 }, "geometry": { "type": "Point", "coordinates": [ -74.045952558517399, 40.723331586464397 ] } },
{ "type": "Feature", "properties": { "field_1": 216, "id": 19102, "name": "Manila & 1st", "st_x": -74.042884111404405, "st_y": 40.72165072488, "full": 3, "empty": 5 }, "geometry": { "type": "Point", "coordinates": [ -74.042884111404405, 40.72165072488 ] } },
{ "type": "Feature", "properties": { "field_1": 217, "id": 19104, "name": "Columbus Drive", "st_x": -74.038914442062406, "st_y": 40.718355198232103, "full": 10, "empty": 9 }, "geometry": { "type": "Point", "coordinates": [ -74.038914442062406, 40.718355198232103 ] } },
{ "type": "Feature", "properties": { "field_1": 218, "id": 19105, "name": "Marin Light Rail", "st_x": -74.042817056179004, "st_y": 40.714584035358897, "full": 6, "empty": 2 }, "geometry": { "type": "Point", "coordinates": [ -74.042817056179004, 40.714584035358897 ] } },
{ "type": "Feature", "properties": { "field_1": 219, "id": 19106, "name": "Communipaw & Berry Lane", "st_x": -74.066610932350201, "st_y": 40.714358368704303, "full": 3, "empty": 1 }, "geometry": { "type": "Point", "coordinates": [ -74.066610932350201, 40.714358368704303 ] } },
{ "type": "Feature", "properties": { "field_1": 220, "id": 19107, "name": "Monmouth and 6th", "st_x": -74.048790335655198, "st_y": 40.725685483629, "full": 30, "empty": 2 }, "geometry": { "type": "Point", "coordinates": [ -74.048790335655198, 40.725685483629 ] } },
{ "type": "Feature", "properties": { "field_1": 221, "id": 19108, "name": "Dixon Mills", "st_x": -74.049967825412807, "st_y": 40.721630142638404, "full": 9, "empty": 3 }, "geometry": { "type": "Point", "coordinates": [ -74.049967825412807, 40.721630142638404 ] } },
{ "type": "Feature", "properties": { "field_1": 222, "id": 19109, "name": "Astor Place", "st_x": -74.071261882781997, "st_y": 40.719282200706999, "full": 2, "empty": 1 }, "geometry": { "type": "Point", "coordinates": [ -74.071261882781997, 40.719282200706999 ] } },
{ "type": "Feature", "properties": { "field_1": 223, "id": 19110, "name": "Leonard Gordon Park", "st_x": -74.057271480560303, "st_y": 40.745909966315601, "full": 6, "empty": 0 }, "geometry": { "type": "Point", "coordinates": [ -74.057271480560303, 40.745909966315601 ] } },
{ "type": "Feature", "properties": { "field_1": 224, "id": 19111, "name": "5 Ave & E 88 St", "st_x": -73.95939, "st_y": 40.78307, "full": 32, "empty": 4 }, "geometry": { "type": "Point", "coordinates": [ -73.95939, 40.78307 ] } },
{ "type": "Feature", "properties": { "field_1": 225, "id": 19112, "name": "W 89 St & Columbus Ave", "st_x": -73.97041561, "st_y": 40.7882213, "full": 105, "empty": 9 }, "geometry": { "type": "Point", "coordinates": [ -73.97041561, 40.7882213 ] } },
{ "type": "Feature", "properties": { "field_1": 226, "id": 19113, "name": "E 88 St & Park Ave", "st_x": -73.955959081649794, "st_y": 40.781410700190001, "full": 87, "empty": 1 }, "geometry": { "type": "Point", "coordinates": [ -73.955959081649794, 40.781410700190001 ] } },
{ "type": "Feature", "properties": { "field_1": 227, "id": 19114, "name": "W 87 St  & Amsterdam Ave", "st_x": -73.9747, "st_y": 40.78839, "full": 96, "empty": 2 }, "geometry": { "type": "Point", "coordinates": [ -73.9747, 40.78839 ] } },
{ "type": "Feature", "properties": { "field_1": 228, "id": 19115, "name": "E 89 St & 3 Ave", "st_x": -73.9521667, "st_y": 40.7806284, "full": 97, "empty": 14 }, "geometry": { "type": "Point", "coordinates": [ -73.9521667, 40.7806284 ] } },
{ "type": "Feature", "properties": { "field_1": 229, "id": 19116, "name": "W 87 St & West End Ave", "st_x": -73.977131, "st_y": 40.790261, "full": 35, "empty": 1 }, "geometry": { "type": "Point", "coordinates": [ -73.977131, 40.790261 ] } },
{ "type": "Feature", "properties": { "field_1": 230, "id": 19117, "name": "E 88 St & 1 Ave", "st_x": -73.9488134, "st_y": 40.778301, "full": 48, "empty": 6 }, "geometry": { "type": "Point", "coordinates": [ -73.9488134, 40.778301 ] } },
{ "type": "Feature", "properties": { "field_1": 231, "id": 19118, "name": "W 90 St & Amsterdam Ave", "st_x": -73.972889184951796, "st_y": 40.790179480950798, "full": 68, "empty": 0 }, "geometry": { "type": "Point", "coordinates": [ -73.972889184951796, 40.790179480950798 ] } },
{ "type": "Feature", "properties": { "field_1": 232, "id": 19119, "name": "E 89 St & York Ave", "st_x": -73.946041, "st_y": 40.7779453, "full": 49, "empty": 10 }, "geometry": { "type": "Point", "coordinates": [ -73.946041, 40.7779453 ] } },
{ "type": "Feature", "properties": { "field_1": 234, "id": 19121, "name": "5 Ave & E 93 St", "st_x": -73.957481, "st_y": 40.7857851, "full": 65, "empty": 2 }, "geometry": { "type": "Point", "coordinates": [ -73.957481, 40.7857851 ] } },
{ "type": "Feature", "properties": { "field_1": 235, "id": 19122, "name": "W 92 St & Broadway", "st_x": -73.9739, "st_y": 40.7921, "full": 143, "empty": 9 }, "geometry": { "type": "Point", "coordinates": [ -73.9739, 40.7921 ] } },
{ "type": "Feature", "properties": { "field_1": 236, "id": 19123, "name": "E 91 St & Park Ave", "st_x": -73.955327, "st_y": 40.7835016, "full": 94, "empty": 0 }, "geometry": { "type": "Point", "coordinates": [ -73.955327, 40.7835016 ] } },
{ "type": "Feature", "properties": { "field_1": 237, "id": 19124, "name": "Central Park W & W 96 St", "st_x": -73.964839, "st_y": 40.79127, "full": 103, "empty": 0 }, "geometry": { "type": "Point", "coordinates": [ -73.964839, 40.79127 ] } },
{ "type": "Feature", "properties": { "field_1": 238, "id": 19125, "name": "Coming Soon: E 93 St & 2 Ave", "st_x": -73.948878049850506, "st_y": 40.782505647290201, "full": 1, "empty": 1 }, "geometry": { "type": "Point", "coordinates": [ -73.948878049850506, 40.782505647290201 ] } },
{ "type": "Feature", "properties": { "field_1": 239, "id": 19126, "name": "6 St & 7 Ave", "st_x": -73.97988067, "st_y": 40.6686627, "full": 75, "empty": 1 }, "geometry": { "type": "Point", "coordinates": [ -73.97988067, 40.6686627 ] } },
{ "type": "Feature", "properties": { "field_1": 240, "id": 19127, "name": "Warren St & Court St", "st_x": -73.99383324, "st_y": 40.686371, "full": 59, "empty": 0 }, "geometry": { "type": "Point", "coordinates": [ -73.99383324, 40.686371 ] } },
{ "type": "Feature", "properties": { "field_1": 241, "id": 19128, "name": "Coming Soon: E 98 St & Lexington Ave", "st_x": -73.950105160474806, "st_y": 40.787278535021002, "full": 1, "empty": 1 }, "geometry": { "type": "Point", "coordinates": [ -73.950105160474806, 40.787278535021002 ] } },
{ "type": "Feature", "properties": { "field_1": 242, "id": 19129, "name": "Prospect Park West & 8 St", "st_x": -73.9763760566711, "st_y": 40.665146815337899, "full": 66, "empty": 3 }, "geometry": { "type": "Point", "coordinates": [ -73.9763760566711, 40.665146815337899 ] } },
{ "type": "Feature", "properties": { "field_1": 243, "id": 19130, "name": "Columbus Ave & W 95 St", "st_x": -73.968087, "st_y": 40.7919557, "full": 129, "empty": 0 }, "geometry": { "type": "Point", "coordinates": [ -73.968087, 40.7919557 ] } },
{ "type": "Feature", "properties": { "field_1": 244, "id": 19131, "name": "Columbus Ave & W 103 St", "st_x": -73.9643412291, "st_y": 40.7969347, "full": 36, "empty": 0 }, "geometry": { "type": "Point", "coordinates": [ -73.9643412291, 40.7969347 ] } },
{ "type": "Feature", "properties": { "field_1": 245, "id": 19132, "name": "Butler St & Court St", "st_x": -73.99440329, "st_y": 40.6849894, "full": 55, "empty": 1 }, "geometry": { "type": "Point", "coordinates": [ -73.99440329, 40.6849894 ] } },
{ "type": "Feature", "properties": { "field_1": 246, "id": 19133, "name": "6 Ave & 9 St", "st_x": -73.98377641, "st_y": 40.668127, "full": 78, "empty": 0 }, "geometry": { "type": "Point", "coordinates": [ -73.98377641, 40.668127 ] } },
{ "type": "Feature", "properties": { "field_1": 247, "id": 19134, "name": "E 91 St & 2 Ave", "st_x": -73.949655890464797, "st_y": 40.781122299341703, "full": 65, "empty": 10 }, "geometry": { "type": "Point", "coordinates": [ -73.949655890464797, 40.781122299341703 ] } },
{ "type": "Feature", "properties": { "field_1": 248, "id": 19135, "name": "10 St & 7 Ave", "st_x": -73.98199886, "st_y": 40.6662078, "full": 85, "empty": 2 }, "geometry": { "type": "Point", "coordinates": [ -73.98199886, 40.6662078 ] } },
{ "type": "Feature", "properties": { "field_1": 249, "id": 19136, "name": "West End Ave & W 94 St", "st_x": -73.974124, "st_y": 40.7941654, "full": 100, "empty": 3 }, "geometry": { "type": "Point", "coordinates": [ -73.974124, 40.7941654 ] } },
{ "type": "Feature", "properties": { "field_1": 250, "id": 19137, "name": "Kane St & Clinton St", "st_x": -73.99645295000001, "st_y": 40.6861758, "full": 96, "empty": 0 }, "geometry": { "type": "Point", "coordinates": [ -73.99645295, 40.6861758 ] } },
{ "type": "Feature", "properties": { "field_1": 251, "id": 19138, "name": "E 97 St & 3 Ave", "st_x": -73.94860294, "st_y": 40.7859201, "full": 23, "empty": 3 }, "geometry": { "type": "Point", "coordinates": [ -73.94860294, 40.7859201 ] } },
{ "type": "Feature", "properties": { "field_1": 252, "id": 19139, "name": "14 St & 7 Ave", "st_x": -73.98396846, "st_y": 40.663779, "full": 75, "empty": 0 }, "geometry": { "type": "Point", "coordinates": [ -73.98396846, 40.663779 ] } },
{ "type": "Feature", "properties": { "field_1": 253, "id": 19140, "name": "Columbia St & Kane St", "st_x": -74.0016256, "st_y": 40.68763155, "full": 15, "empty": 3 }, "geometry": { "type": "Point", "coordinates": [ -74.0016256, 40.68763155 ] } },
{ "type": "Feature", "properties": { "field_1": 254, "id": 19141, "name": "1 Ave & E 94 St", "st_x": -73.94594, "st_y": 40.7817212, "full": 11, "empty": 13 }, "geometry": { "type": "Point", "coordinates": [ -73.94594, 40.7817212 ] } },
{ "type": "Feature", "properties": { "field_1": 255, "id": 19142, "name": "6 Ave & 12 St", "st_x": -73.9854617, "st_y": 40.6663181, "full": 42, "empty": 0 }, "geometry": { "type": "Point", "coordinates": [ -73.9854617, 40.6663181 ] } },
{ "type": "Feature", "properties": { "field_1": 256, "id": 19143, "name": "W 95 St & Broadway", "st_x": -73.971888, "st_y": 40.7937704, "full": 77, "empty": 4 }, "geometry": { "type": "Point", "coordinates": [ -73.971888, 40.7937704 ] } },
{ "type": "Feature", "properties": { "field_1": 257, "id": 19144, "name": "Henry St & Degraw St", "st_x": -73.99917254, "st_y": 40.6847514, "full": 83, "empty": 1 }, "geometry": { "type": "Point", "coordinates": [ -73.99917254, 40.6847514 ] } },
{ "type": "Feature", "properties": { "field_1": 258, "id": 19145, "name": "W 104 St & Amsterdam Ave", "st_x": -73.966217377800007, "st_y": 40.7989937, "full": 69, "empty": 0 }, "geometry": { "type": "Point", "coordinates": [ -73.966217377800007, 40.7989937 ] } },
{ "type": "Feature", "properties": { "field_1": 259, "id": 19146, "name": "10 St & 5 Ave", "st_x": -73.98700053, "st_y": 40.6686273, "full": 32, "empty": 1 }, "geometry": { "type": "Point", "coordinates": [ -73.98700053, 40.6686273 ] } },
{ "type": "Feature", "properties": { "field_1": 260, "id": 19147, "name": "Coming Soon: 2 Ave & E 96 St", "st_x": -73.9471673, "st_y": 40.7839636, "full": 1, "empty": 1 }, "geometry": { "type": "Point", "coordinates": [ -73.9471673, 40.7839636 ] } },
{ "type": "Feature", "properties": { "field_1": 261, "id": 19148, "name": "14 St & 5 Ave", "st_x": -73.98895053, "st_y": 40.666287, "full": 27, "empty": 4 }, "geometry": { "type": "Point", "coordinates": [ -73.98895053, 40.666287 ] } },
{ "type": "Feature", "properties": { "field_1": 262, "id": 19149, "name": "Central Park West & W 100 St", "st_x": -73.9635556, "st_y": 40.793393, "full": 74, "empty": 9 }, "geometry": { "type": "Point", "coordinates": [ -73.9635556, 40.793393 ] } },
{ "type": "Feature", "properties": { "field_1": 263, "id": 19150, "name": "Clinton St & Union St", "st_x": -73.99785267, "st_y": 40.6831164, "full": 90, "empty": 0 }, "geometry": { "type": "Point", "coordinates": [ -73.99785267, 40.6831164 ] } },
{ "type": "Feature", "properties": { "field_1": 264, "id": 19151, "name": "12 St & 4 Ave", "st_x": -73.9904394, "st_y": 40.668603, "full": 12, "empty": 1 }, "geometry": { "type": "Point", "coordinates": [ -73.9904394, 40.668603 ] } },
{ "type": "Feature", "properties": { "field_1": 265, "id": 19152, "name": "W 106 St & Central Park West", "st_x": -73.960590900599996, "st_y": 40.7981856, "full": 76, "empty": 0 }, "geometry": { "type": "Point", "coordinates": [ -73.960590900599996, 40.7981856 ] } },
{ "type": "Feature", "properties": { "field_1": 266, "id": 19153, "name": "3 Ave & 14 St", "st_x": -73.99333264000001, "st_y": 40.6685455, "full": 5, "empty": 13 }, "geometry": { "type": "Point", "coordinates": [ -73.99333264, 40.6685455 ] } },
{ "type": "Feature", "properties": { "field_1": 267, "id": 19154, "name": "E 95 St & 3 Ave", "st_x": -73.950503, "st_y": 40.7849032, "full": 40, "empty": 2 }, "geometry": { "type": "Point", "coordinates": [ -73.950503, 40.7849032 ] } },
{ "type": "Feature", "properties": { "field_1": 268, "id": 19155, "name": "Clinton St & Centre St", "st_x": -74.00194698, "st_y": 40.67434, "full": 4, "empty": 0 }, "geometry": { "type": "Point", "coordinates": [ -74.00194698, 40.67434 ] } },
{ "type": "Feature", "properties": { "field_1": 269, "id": 19156, "name": "3 Ave & E 100 St", "st_x": -73.94728331, "st_y": 40.7877214, "full": 6, "empty": 11 }, "geometry": { "type": "Point", "coordinates": [ -73.94728331, 40.7877214 ] } },
{ "type": "Feature", "properties": { "field_1": 270, "id": 19157, "name": "W 100 St & Manhattan Ave", "st_x": -73.9645, "st_y": 40.795, "full": 73, "empty": 5 }, "geometry": { "type": "Point", "coordinates": [ -73.9645, 40.795 ] } },
{ "type": "Feature", "properties": { "field_1": 271, "id": 19158, "name": "Degraw St & Smith St", "st_x": -73.99318208, "st_y": 40.6829151, "full": 56, "empty": 0 }, "geometry": { "type": "Point", "coordinates": [ -73.99318208, 40.6829151 ] } },
{ "type": "Feature", "properties": { "field_1": 272, "id": 19159, "name": "Henry St & Bay St", "st_x": -74.00494695, "st_y": 40.6725058, "full": 3, "empty": 7 }, "geometry": { "type": "Point", "coordinates": [ -74.00494695, 40.6725058 ] } },
{ "type": "Feature", "properties": { "field_1": 273, "id": 19160, "name": "Riverside Dr & W 104 St", "st_x": -73.971145743899996, "st_y": 40.8013434, "full": 63, "empty": 0 }, "geometry": { "type": "Point", "coordinates": [ -73.971145743899996, 40.8013434 ] } },
{ "type": "Feature", "properties": { "field_1": 274, "id": 19161, "name": "Degraw St & Hoyt St", "st_x": -73.990790247917204, "st_y": 40.681990442706997, "full": 20, "empty": 3 }, "geometry": { "type": "Point", "coordinates": [ -73.990790247917204, 40.681990442706997 ] } },
{ "type": "Feature", "properties": { "field_1": 276, "id": 19163, "name": "Union St & 4 Ave", "st_x": -73.98282002000001, "st_y": 40.6772744, "full": 14, "empty": 18 }, "geometry": { "type": "Point", "coordinates": [ -73.98282002, 40.6772744 ] } },
{ "type": "Feature", "properties": { "field_1": 277, "id": 19164, "name": "E 97 St & Madison Ave", "st_x": -73.953559, "st_y": 40.787801, "full": 63, "empty": 0 }, "geometry": { "type": "Point", "coordinates": [ -73.953559, 40.787801 ] } },
{ "type": "Feature", "properties": { "field_1": 278, "id": 19165, "name": "Coming Soon: Dwight St & Van Dyke St", "st_x": -74.011955559253707, "st_y": 40.673635513415, "full": 1, "empty": 1 }, "geometry": { "type": "Point", "coordinates": [ -74.011955559253707, 40.673635513415 ] } },
{ "type": "Feature", "properties": { "field_1": 279, "id": 19166, "name": "2 Ave & E 99 St", "st_x": -73.94552579, "st_y": 40.7862586, "full": 9, "empty": 6 }, "geometry": { "type": "Point", "coordinates": [ -73.94552579, 40.7862586 ] } },
{ "type": "Feature", "properties": { "field_1": 280, "id": 19167, "name": "Berkeley Pl & 6 Ave", "st_x": -73.97846879, "st_y": 40.6765304, "full": 40, "empty": 11 }, "geometry": { "type": "Point", "coordinates": [ -73.97846879, 40.6765304 ] } },
{ "type": "Feature", "properties": { "field_1": 281, "id": 19168, "name": "Wolcott St & Dwight St", "st_x": -74.0100698, "st_y": 40.6753274, "full": 9, "empty": 13 }, "geometry": { "type": "Point", "coordinates": [ -74.0100698, 40.6753274 ] } },
{ "type": "Feature", "properties": { "field_1": 282, "id": 19169, "name": "Central Park West & W 102 St", "st_x": -73.96186, "st_y": 40.795346, "full": 64, "empty": 0 }, "geometry": { "type": "Point", "coordinates": [ -73.96186, 40.795346 ] } },
{ "type": "Feature", "properties": { "field_1": 283, "id": 19170, "name": "Pioneer St & Richards St", "st_x": -74.0094613, "st_y": 40.6777748, "full": 3, "empty": 10 }, "geometry": { "type": "Point", "coordinates": [ -74.0094613, 40.6777748 ] } },
{ "type": "Feature", "properties": { "field_1": 284, "id": 19171, "name": "W 107 St & Columbus Ave", "st_x": -73.962112867599998, "st_y": 40.7997568, "full": 97, "empty": 0 }, "geometry": { "type": "Point", "coordinates": [ -73.962112867599998, 40.7997568 ] } },
{ "type": "Feature", "properties": { "field_1": 285, "id": 19172, "name": "Pioneer St & Van Brunt St", "st_x": -74.011169, "st_y": 40.679043, "full": 7, "empty": 18 }, "geometry": { "type": "Point", "coordinates": [ -74.011169, 40.679043 ] } },
{ "type": "Feature", "properties": { "field_1": 286, "id": 19173, "name": "Madison Ave & E 99 St", "st_x": -73.952429294586196, "st_y": 40.789485415532099, "full": 13, "empty": 14 }, "geometry": { "type": "Point", "coordinates": [ -73.952429294586196, 40.789485415532099 ] } },
{ "type": "Feature", "properties": { "field_1": 287, "id": 19174, "name": "Berkeley Pl & 7 Ave", "st_x": -73.975232094526305, "st_y": 40.6751468387098, "full": 61, "empty": 9 }, "geometry": { "type": "Point", "coordinates": [ -73.975232094526305, 40.6751468387098 ] } },
{ "type": "Feature", "properties": { "field_1": 288, "id": 19175, "name": "Van Brunt St & Wolcott St", "st_x": -74.01275056, "st_y": 40.6773429, "full": 14, "empty": 3 }, "geometry": { "type": "Point", "coordinates": [ -74.01275056, 40.6773429 ] } },
{ "type": "Feature", "properties": { "field_1": 289, "id": 19176, "name": "Coffey St & Conover St", "st_x": -74.015665, "st_y": 40.677236, "full": 13, "empty": 17 }, "geometry": { "type": "Point", "coordinates": [ -74.015665, 40.677236 ] } },
{ "type": "Feature", "properties": { "field_1": 290, "id": 19177, "name": "Grand Army Plaza & Plaza St West", "st_x": -73.97087984, "st_y": 40.6729679, "full": 70, "empty": 1 }, "geometry": { "type": "Point", "coordinates": [ -73.97087984, 40.6729679 ] } },
{ "type": "Feature", "properties": { "field_1": 291, "id": 19178, "name": "W 100 St & Broadway", "st_x": -73.97041192, "st_y": 40.7973721, "full": 125, "empty": 1 }, "geometry": { "type": "Point", "coordinates": [ -73.97041192, 40.7973721 ] } },
{ "type": "Feature", "properties": { "field_1": 292, "id": 19179, "name": "E 102 St & 1 Ave", "st_x": -73.94164802, "st_y": 40.7869946, "full": 11, "empty": 11 }, "geometry": { "type": "Point", "coordinates": [ -73.94164802, 40.7869946 ] } },
{ "type": "Feature", "properties": { "field_1": 293, "id": 19180, "name": "Sigourney St & Columbia St", "st_x": -74.008795246481895, "st_y": 40.672672434109501, "full": 8, "empty": 3 }, "geometry": { "type": "Point", "coordinates": [ -74.008795246481895, 40.672672434109501 ] } },
{ "type": "Feature", "properties": { "field_1": 295, "id": 19182, "name": "3 St & Prospect Park West", "st_x": -73.97363831, "st_y": 40.668132, "full": 82, "empty": 1 }, "geometry": { "type": "Point", "coordinates": [ -73.97363831, 40.668132 ] } },
{ "type": "Feature", "properties": { "field_1": 296, "id": 19183, "name": "E 66 St & Madison Ave", "st_x": -73.968452811241093, "st_y": 40.768008893059502, "full": 38, "empty": 10 }, "geometry": { "type": "Point", "coordinates": [ -73.968452811241093, 40.768008893059502 ] } },
{ "type": "Feature", "properties": { "field_1": 297, "id": 19184, "name": "Amsterdam Ave & W 66 St", "st_x": -73.98470567, "st_y": 40.7746671, "full": 100, "empty": 1 }, "geometry": { "type": "Point", "coordinates": [ -73.98470567, 40.7746671 ] } },
{ "type": "Feature", "properties": { "field_1": 298, "id": 19185, "name": "W 106 St & Amsterdam Ave", "st_x": -73.966449247200003, "st_y": 40.8008363, "full": 77, "empty": 0 }, "geometry": { "type": "Point", "coordinates": [ -73.966449247200003, 40.8008363 ] } },
{ "type": "Feature", "properties": { "field_1": 299, "id": 19186, "name": "Garfield Pl & 8 Ave", "st_x": -73.97484126000001, "st_y": 40.6711978, "full": 79, "empty": 1 }, "geometry": { "type": "Point", "coordinates": [ -73.97484126, 40.6711978 ] } },
{ "type": "Feature", "properties": { "field_1": 300, "id": 19187, "name": "E 68 St & Madison Ave", "st_x": -73.96703464, "st_y": 40.7691572, "full": 50, "empty": 5 }, "geometry": { "type": "Point", "coordinates": [ -73.96703464, 40.7691572 ] } },
{ "type": "Feature", "properties": { "field_1": 301, "id": 19188, "name": "Amsterdam Ave & W 79 St", "st_x": -73.9786517, "st_y": 40.7829391, "full": 115, "empty": 5 }, "geometry": { "type": "Point", "coordinates": [ -73.9786517, 40.7829391 ] } },
{ "type": "Feature", "properties": { "field_1": 302, "id": 19189, "name": "Carroll St & 6 Ave", "st_x": -73.9787282, "st_y": 40.6740886, "full": 99, "empty": 9 }, "geometry": { "type": "Point", "coordinates": [ -73.9787282, 40.6740886 ] } },
{ "type": "Feature", "properties": { "field_1": 303, "id": 19190, "name": "Madison Ave & E 82 St", "st_x": -73.96069399, "st_y": 40.7781314, "full": 41, "empty": 3 }, "geometry": { "type": "Point", "coordinates": [ -73.96069399, 40.7781314 ] } },
{ "type": "Feature", "properties": { "field_1": 304, "id": 19191, "name": "E 102 St & Park Ave", "st_x": -73.95033068, "st_y": 40.7904828, "full": 6, "empty": 1 }, "geometry": { "type": "Point", "coordinates": [ -73.95033068, 40.7904828 ] } },
{ "type": "Feature", "properties": { "field_1": 305, "id": 19192, "name": "Carroll St & 5 Ave", "st_x": -73.9814832, "st_y": 40.6751622, "full": 75, "empty": 6 }, "geometry": { "type": "Point", "coordinates": [ -73.9814832, 40.6751622 ] } },
{ "type": "Feature", "properties": { "field_1": 306, "id": 19193, "name": "3 St & 7 Ave", "st_x": -73.97839676, "st_y": 40.6703837, "full": 73, "empty": 4 }, "geometry": { "type": "Point", "coordinates": [ -73.97839676, 40.6703837 ] } },
{ "type": "Feature", "properties": { "field_1": 307, "id": 19194, "name": "West End Ave & W 107 St", "st_x": -73.968180530500007, "st_y": 40.8021174, "full": 106, "empty": 2 }, "geometry": { "type": "Point", "coordinates": [ -73.968180530500007, 40.8021174 ] } },
{ "type": "Feature", "properties": { "field_1": 308, "id": 19195, "name": "5 Ave & E 103 St", "st_x": -73.95249933, "st_y": 40.7922553, "full": 28, "empty": 2 }, "geometry": { "type": "Point", "coordinates": [ -73.95249933, 40.7922553 ] } },
{ "type": "Feature", "properties": { "field_1": 309, "id": 19196, "name": "5 Ave & 3 St", "st_x": -73.98352355, "st_y": 40.6728155, "full": 79, "empty": 1 }, "geometry": { "type": "Point", "coordinates": [ -73.98352355, 40.6728155 ] } },
{ "type": "Feature", "properties": { "field_1": 310, "id": 19197, "name": "Coming Soon: 83 St & East End Ave", "st_x": -73.94637823, "st_y": 40.7730159, "full": 1, "empty": 1 }, "geometry": { "type": "Point", "coordinates": [ -73.94637823, 40.7730159 ] } },
{ "type": "Feature", "properties": { "field_1": 311, "id": 19198, "name": "E 78 St & 2 Ave", "st_x": -73.95577801, "st_y": 40.7727966, "full": 72, "empty": 5 }, "geometry": { "type": "Point", "coordinates": [ -73.95577801, 40.7727966 ] } },
{ "type": "Feature", "properties": { "field_1": 312, "id": 19199, "name": "4 Ave & 2 St", "st_x": -73.985011428594603, "st_y": 40.674613422475801, "full": 7, "empty": 2 }, "geometry": { "type": "Point", "coordinates": [ -73.985011428594603, 40.674613422475801 ] } },
{ "type": "Feature", "properties": { "field_1": 313, "id": 19200, "name": "E 74 St & 1 Ave", "st_x": -73.95482273, "st_y": 40.7689738, "full": 60, "empty": 4 }, "geometry": { "type": "Point", "coordinates": [ -73.95482273, 40.7689738 ] } },
{ "type": "Feature", "properties": { "field_1": 314, "id": 19201, "name": "3 St & 3 Ave", "st_x": -73.98775226, "st_y": 40.6750705, "full": 1, "empty": 44 }, "geometry": { "type": "Point", "coordinates": [ -73.98775226, 40.6750705 ] } },
{ "type": "Feature", "properties": { "field_1": 315, "id": 19202, "name": "Central Park North & Adam Clayton Powell Blvd", "st_x": -73.955613, "st_y": 40.799484, "full": 38, "empty": 18 }, "geometry": { "type": "Point", "coordinates": [ -73.955613, 40.799484 ] } },
{ "type": "Feature", "properties": { "field_1": 316, "id": 19203, "name": "3 Ave & E 72 St", "st_x": -73.96060712000001, "st_y": 40.7699426, "full": 75, "empty": 1 }, "geometry": { "type": "Point", "coordinates": [ -73.96060712, 40.7699426 ] } },
{ "type": "Feature", "properties": { "field_1": 317, "id": 19204, "name": "E 65 St & 2 Ave", "st_x": -73.962220698595004, "st_y": 40.764718519443399, "full": 43, "empty": 2 }, "geometry": { "type": "Point", "coordinates": [ -73.962220698595004, 40.764718519443399 ] } },
{ "type": "Feature", "properties": { "field_1": 318, "id": 19205, "name": "Carroll St & Bond St", "st_x": -73.99037292, "st_y": 40.6786115, "full": 26, "empty": 6 }, "geometry": { "type": "Point", "coordinates": [ -73.99037292, 40.6786115 ] } },
{ "type": "Feature", "properties": { "field_1": 319, "id": 19206, "name": "E 103 St & Lexington Ave", "st_x": -73.94755757, "st_y": 40.7903051, "full": 5, "empty": 19 }, "geometry": { "type": "Point", "coordinates": [ -73.94755757, 40.7903051 ] } },
{ "type": "Feature", "properties": { "field_1": 320, "id": 19207, "name": "3 St & Hoyt St", "st_x": -73.99364123, "st_y": 40.6777287, "full": 7, "empty": 8 }, "geometry": { "type": "Point", "coordinates": [ -73.99364123, 40.6777287 ] } },
{ "type": "Feature", "properties": { "field_1": 321, "id": 19208, "name": "Carroll St & Smith St", "st_x": -73.99475825, "st_y": 40.680611, "full": 50, "empty": 1 }, "geometry": { "type": "Point", "coordinates": [ -73.99475825, 40.680611 ] } },
{ "type": "Feature", "properties": { "field_1": 322, "id": 19209, "name": "Cathedral Pkwy & Broadway", "st_x": -73.96699104, "st_y": 40.804213, "full": 111, "empty": 2 }, "geometry": { "type": "Point", "coordinates": [ -73.96699104, 40.804213 ] } },
{ "type": "Feature", "properties": { "field_1": 323, "id": 19210, "name": "Smith St & 3 St", "st_x": -73.99599099, "st_y": 40.6787242, "full": 76, "empty": 2 }, "geometry": { "type": "Point", "coordinates": [ -73.99599099, 40.6787242 ] } },
{ "type": "Feature", "properties": { "field_1": 324, "id": 19211, "name": "1 Pl & Clinton St", "st_x": -73.99905709, "st_y": 40.6809591, "full": 63, "empty": 0 }, "geometry": { "type": "Point", "coordinates": [ -73.99905709, 40.6809591 ] } },
{ "type": "Feature", "properties": { "field_1": 325, "id": 19212, "name": "E 106 St & Madison Ave", "st_x": -73.94945003, "st_y": 40.7934337, "full": 8, "empty": 9 }, "geometry": { "type": "Point", "coordinates": [ -73.94945003, 40.7934337 ] } },
{ "type": "Feature", "properties": { "field_1": 326, "id": 19213, "name": "President St & Henry St", "st_x": -73.99990419, "st_y": 40.6828003, "full": 50, "empty": 0 }, "geometry": { "type": "Point", "coordinates": [ -73.99990419, 40.6828003 ] } },
{ "type": "Feature", "properties": { "field_1": 327, "id": 19214, "name": "Carroll St & Columbia St", "st_x": -74.00348559, "st_y": 40.6830456, "full": 32, "empty": 1 }, "geometry": { "type": "Point", "coordinates": [ -74.00348559, 40.6830456 ] } },
{ "type": "Feature", "properties": { "field_1": 328, "id": 19215, "name": "E 109 St & 3 Ave", "st_x": -73.9432083, "st_y": 40.79329668, "full": 12, "empty": 16 }, "geometry": { "type": "Point", "coordinates": [ -73.9432083, 40.79329668 ] } },
{ "type": "Feature", "properties": { "field_1": 330, "id": 19217, "name": "Commerce St & Van Brunt St", "st_x": -74.00860912, "st_y": 40.6812117, "full": 3, "empty": 17 }, "geometry": { "type": "Point", "coordinates": [ -74.00860912, 40.6812117 ] } },
{ "type": "Feature", "properties": { "field_1": 331, "id": 19218, "name": "Richards St & Delavan St", "st_x": -74.00785041, "st_y": 40.6794327, "full": 5, "empty": 6 }, "geometry": { "type": "Point", "coordinates": [ -74.00785041, 40.6794327 ] } },
{ "type": "Feature", "properties": { "field_1": 332, "id": 19219, "name": "Columbia St & W 9 St", "st_x": -74.00647134, "st_y": 40.6769993, "full": 1, "empty": 3 }, "geometry": { "type": "Point", "coordinates": [ -74.00647134, 40.6769993 ] } },
{ "type": "Feature", "properties": { "field_1": 333, "id": 19220, "name": "Henry St & W 9 St", "st_x": -74.00324957, "st_y": 40.6763744, "full": 5, "empty": 6 }, "geometry": { "type": "Point", "coordinates": [ -74.00324957, 40.6763744 ] } },
{ "type": "Feature", "properties": { "field_1": 334, "id": 19221, "name": "Clinton St & 4 Place", "st_x": -74.00014502000001, "st_y": 40.6783563, "full": 68, "empty": 0 }, "geometry": { "type": "Point", "coordinates": [ -74.00014502, 40.6783563 ] } },
{ "type": "Feature", "properties": { "field_1": 335, "id": 19222, "name": "Court St & Nelson St", "st_x": -73.99869893, "st_y": 40.6763947, "full": 29, "empty": 9 }, "geometry": { "type": "Point", "coordinates": [ -73.99869893, 40.6763947 ] } },
{ "type": "Feature", "properties": { "field_1": 336, "id": 19223, "name": "Smith St & 9 St", "st_x": -73.99785768, "st_y": 40.6746957, "full": 28, "empty": 6 }, "geometry": { "type": "Point", "coordinates": [ -73.99785768, 40.6746957 ] } },
{ "type": "Feature", "properties": { "field_1": 337, "id": 19224, "name": "7 St & 3 Ave", "st_x": -73.989830017089801, "st_y": 40.672602981501299, "full": 4, "empty": 10 }, "geometry": { "type": "Point", "coordinates": [ -73.989830017089801, 40.672602981501299 ] } },
{ "type": "Feature", "properties": { "field_1": 338, "id": 19225, "name": "E 110 St & Madison Ave", "st_x": -73.94782145000001, "st_y": 40.7961535, "full": 39, "empty": 6 }, "geometry": { "type": "Point", "coordinates": [ -73.94782145, 40.7961535 ] } },
{ "type": "Feature", "properties": { "field_1": 339, "id": 19226, "name": "2 Ave & 9 St", "st_x": -73.99331394, "st_y": 40.6724811, "full": 4, "empty": 7 }, "geometry": { "type": "Point", "coordinates": [ -73.99331394, 40.6724811 ] } },
{ "type": "Feature", "properties": { "field_1": 340, "id": 19227, "name": "Court St & State St", "st_x": -73.99203074, "st_y": 40.6902375, "full": 47, "empty": 3 }, "geometry": { "type": "Point", "coordinates": [ -73.99203074, 40.6902375 ] } },
{ "type": "Feature", "properties": { "field_1": 341, "id": 19228, "name": "4 Ave & 9 St", "st_x": -73.98876585, "st_y": 40.6705135, "full": 21, "empty": 14 }, "geometry": { "type": "Point", "coordinates": [ -73.98876585, 40.6705135 ] } },
{ "type": "Feature", "properties": { "field_1": 342, "id": 19229, "name": "7 St & 5 Ave", "st_x": -73.98541675, "st_y": 40.6704922, "full": 43, "empty": 0 }, "geometry": { "type": "Point", "coordinates": [ -73.98541675, 40.6704922 ] } },
{ "type": "Feature", "properties": { "field_1": 343, "id": 19230, "name": "5 St & 6 Ave", "st_x": -73.98208968, "st_y": 40.6704836, "full": 47, "empty": 2 }, "geometry": { "type": "Point", "coordinates": [ -73.98208968, 40.6704836 ] } },
{ "type": "Feature", "properties": { "field_1": 344, "id": 19231, "name": "Union St & Nevins St", "st_x": -73.987654745578794, "st_y": 40.6790979972168, "full": 4, "empty": 7 }, "geometry": { "type": "Point", "coordinates": [ -73.987654745578794, 40.6790979972168 ] } },
{ "type": "Feature", "properties": { "field_1": 345, "id": 19232, "name": "Congress St & Clinton St", "st_x": -73.99520919, "st_y": 40.6881529, "full": 68, "empty": 0 }, "geometry": { "type": "Point", "coordinates": [ -73.99520919, 40.6881529 ] } },
{ "type": "Feature", "properties": { "field_1": 346, "id": 19233, "name": "Bergen St & Smith St", "st_x": -73.99063168000001, "st_y": 40.6867443, "full": 10, "empty": 6 }, "geometry": { "type": "Point", "coordinates": [ -73.99063168, 40.6867443 ] } },
{ "type": "Feature", "properties": { "field_1": 347, "id": 19234, "name": "Dean St & Hoyt St", "st_x": -73.98759104, "st_y": 40.6864442, "full": 10, "empty": 0 }, "geometry": { "type": "Point", "coordinates": [ -73.98759104, 40.6864442 ] } },
{ "type": "Feature", "properties": { "field_1": 348, "id": 19235, "name": "Bond St & Bergen St", "st_x": -73.98620772, "st_y": 40.6849668, "full": 59, "empty": 0 }, "geometry": { "type": "Point", "coordinates": [ -73.98620772, 40.6849668 ] } },
{ "type": "Feature", "properties": { "field_1": 349, "id": 19236, "name": "Pacific St & Nevins St", "st_x": -73.98302136, "st_y": 40.6853761, "full": 42, "empty": 1 }, "geometry": { "type": "Point", "coordinates": [ -73.98302136, 40.6853761 ] } },
{ "type": "Feature", "properties": { "field_1": 350, "id": 19237, "name": "Wyckoff St & 3 Ave", "st_x": -73.98258555, "st_y": 40.6827549, "full": 9, "empty": 0 }, "geometry": { "type": "Point", "coordinates": [ -73.98258555, 40.6827549 ] } },
{ "type": "Feature", "properties": { "field_1": 351, "id": 19238, "name": "Bergen St & Flatbush Ave", "st_x": -73.975673317909198, "st_y": 40.680944723477303, "full": 36, "empty": 10 }, "geometry": { "type": "Point", "coordinates": [ -73.975673317909198, 40.680944723477303 ] } },
{ "type": "Feature", "properties": { "field_1": 352, "id": 19239, "name": "Prospect Pl & 6 Ave", "st_x": -73.97519523, "st_y": 40.6793307, "full": 16, "empty": 7 }, "geometry": { "type": "Point", "coordinates": [ -73.97519523, 40.6793307 ] } },
{ "type": "Feature", "properties": { "field_1": 353, "id": 19240, "name": "7 Ave & Park Pl", "st_x": -73.97324283, "st_y": 40.6776147, "full": 63, "empty": 11 }, "geometry": { "type": "Point", "coordinates": [ -73.97324283, 40.6776147 ] } },
{ "type": "Feature", "properties": { "field_1": 354, "id": 19241, "name": "Baltic St & 5 Ave", "st_x": -73.97854971, "st_y": 40.6795766, "full": 27, "empty": 4 }, "geometry": { "type": "Point", "coordinates": [ -73.97854971, 40.6795766 ] } },
{ "type": "Feature", "properties": { "field_1": 355, "id": 19242, "name": "Plaza St West & Flatbush Ave", "st_x": -73.97111473, "st_y": 40.6750207, "full": 61, "empty": 17 }, "geometry": { "type": "Point", "coordinates": [ -73.97111473, 40.6750207 ] } },
{ "type": "Feature", "properties": { "field_1": 356, "id": 19243, "name": "Douglass St & 4 Ave", "st_x": -73.98154004, "st_y": 40.6792788, "full": 20, "empty": 0 }, "geometry": { "type": "Point", "coordinates": [ -73.98154004, 40.6792788 ] } },
{ "type": "Feature", "properties": { "field_1": 357, "id": 19244, "name": "Douglass St & 3 Ave", "st_x": -73.98432695, "st_y": 40.6802133, "full": 1, "empty": 25 }, "geometry": { "type": "Point", "coordinates": [ -73.98432695, 40.6802133 ] } },
{ "type": "Feature", "properties": { "field_1": 358, "id": 19245, "name": "Hoyt St & Warren St", "st_x": -73.98901629, "st_y": 40.6843549, "full": 14, "empty": 0 }, "geometry": { "type": "Point", "coordinates": [ -73.98901629, 40.6843549 ] } },
{ "type": "Feature", "properties": { "field_1": 359, "id": 19246, "name": "Columbia St & Degraw St", "st_x": -74.00242364, "st_y": 40.6859296, "full": 30, "empty": 5 }, "geometry": { "type": "Point", "coordinates": [ -74.00242364, 40.6859296 ] } },
{ "type": "Feature", "properties": { "field_1": 360, "id": 19247, "name": "West Drive & Prospect Park West", "st_x": -73.979452550411196, "st_y": 40.661063371900603, "full": 76, "empty": 3 }, "geometry": { "type": "Point", "coordinates": [ -73.979452550411196, 40.661063371900603 ] } },
{ "type": "Feature", "properties": { "field_1": 361, "id": 19248, "name": "E 106 St & Lexington Ave", "st_x": -73.945993, "st_y": 40.791976, "full": 1, "empty": 4 }, "geometry": { "type": "Point", "coordinates": [ -73.945993, 40.791976 ] } },
{ "type": "Feature", "properties": { "field_1": 362, "id": 19249, "name": "2 Ave  & E 104 St", "st_x": -73.94370784, "st_y": 40.7892105, "full": 3, "empty": 4 }, "geometry": { "type": "Point", "coordinates": [ -73.94370784, 40.7892105 ] } },
{ "type": "Feature", "properties": { "field_1": 364, "id": 20019, "name": "8 Ave & W 16 St", "st_x": -74.001702, "st_y": 40.740983, "full": 33, "empty": 51 }, "geometry": { "type": "Point", "coordinates": [ -74.001702, 40.740983 ] } },
{ "type": "Feature", "properties": { "field_1": 365, "id": 20020, "name": "Hanson Pl & Ashland Pl", "st_x": -73.977907598018604, "st_y": 40.685068073081801, "full": 28, "empty": 5 }, "geometry": { "type": "Point", "coordinates": [ -73.977907598018604, 40.685068073081801 ] } },
{ "type": "Feature", "properties": { "field_1": 366, "id": 20079, "name": "E 76 St & Park Ave", "st_x": -73.96222088, "st_y": 40.773763, "full": 51, "empty": 4 }, "geometry": { "type": "Point", "coordinates": [ -73.96222088, 40.773763 ] } },
{ "type": "Feature", "properties": { "field_1": 367, "id": 20083, "name": "Richardson St & N Henry St", "st_x": -73.942236900329604, "st_y": 40.719078911795599, "full": 73, "empty": 1 }, "geometry": { "type": "Point", "coordinates": [ -73.942236900329604, 40.719078911795599 ] } },
{ "type": "Feature", "properties": { "field_1": 368, "id": 20088, "name": "E 35 St & 3 Ave", "st_x": -73.977885, "st_y": 40.746524, "full": 69, "empty": 13 }, "geometry": { "type": "Point", "coordinates": [ -73.977885, 40.746524 ] } },
{ "type": "Feature", "properties": { "field_1": 369, "id": 20122, "name": "Bike in Movie Night | Prospect Park Bandshell", "st_x": -73.976918, "st_y": 40.662987, "full": 1, "empty": 1 }, "geometry": { "type": "Point", "coordinates": [ -73.976918, 40.662987 ] } },
{ "type": "Feature", "properties": { "field_1": 370, "id": 20135, "name": "Kiosk in a box Deployment", "st_x": -73.928503990173297, "st_y": 40.708610980968203, "full": 1, "empty": 1 }, "geometry": { "type": "Point", "coordinates": [ -73.928503990173297, 40.708610980968203 ] } },
{ "type": "Feature", "properties": { "field_1": 371, "id": 20176, "name": "W 88 St & West End Ave", "st_x": -73.977183401584597, "st_y": 40.790254173304199, "full": 85, "empty": 4 }, "geometry": { "type": "Point", "coordinates": [ -73.977183401584597, 40.790254173304199 ] } },
{ "type": "Feature", "properties": { "field_1": 372, "id": 20177, "name": "Grand St & Elizabeth St", "st_x": -73.99596, "st_y": 40.718822, "full": 19, "empty": 20 }, "geometry": { "type": "Point", "coordinates": [ -73.99596, 40.718822 ] } },
{ "type": "Feature", "properties": { "field_1": 373, "id": 20178, "name": "Greenwich St & Hubert St", "st_x": -74.010065, "st_y": 40.721319, "full": 17, "empty": 31 }, "geometry": { "type": "Point", "coordinates": [ -74.010065, 40.721319 ] } },
{ "type": "Feature", "properties": { "field_1": 374, "id": 20210, "name": "8D OPS 01", "st_x": -72.9931640625, "st_y": 40.010787140465503, "full": 1, "empty": 0 }, "geometry": { "type": "Point", "coordinates": [ -72.9931640625, 40.010787140465503 ] } },
{ "type": "Feature", "properties": { "field_1": 375, "id": 20279, "name": "E 76 St & 3 Ave", "st_x": -73.958421349525494, "st_y": 40.772248537721701, "full": 44, "empty": 0 }, "geometry": { "type": "Point", "coordinates": [ -73.958421349525494, 40.772248537721701 ] } },
{ "type": "Feature", "properties": { "field_1": 376, "id": 20431, "name": "Fulton St & Adams St", "st_x": -73.989494740962996, "st_y": 40.692418292578502, "full": 7, "empty": 0 }, "geometry": { "type": "Point", "coordinates": [ -73.989494740962996, 40.692418292578502 ] } },
{ "type": "Feature", "properties": { "field_1": 377, "id": 20492, "name": "W 52 St & 6 Ave", "st_x": -73.979820013046293, "st_y": 40.761329831248098, "full": 1, "empty": 2 }, "geometry": { "type": "Point", "coordinates": [ -73.979820013046293, 40.761329831248098 ] } },
{ "type": "Feature", "properties": { "field_1": 378, "id": 9062, "name": "W 52 St & 11 Ave", "st_x": -73.99392888, "st_y": 40.76727216, "full": 477, "empty": 12 }, "geometry": { "type": "Point", "coordinates": [ -73.99392888, 40.76727216 ] } },
{ "type": "Feature", "properties": { "field_1": 379, "id": 9063, "name": "Franklin St & W Broadway", "st_x": -74.00666661, "st_y": 40.71911552, "full": 108, "empty": 236 }, "geometry": { "type": "Point", "coordinates": [ -74.00666661, 40.71911552 ] } },
{ "type": "Feature", "properties": { "field_1": 380, "id": 9064, "name": "St James Pl & Pearl St", "st_x": -74.00016545, "st_y": 40.71117416, "full": 196, "empty": 29 }, "geometry": { "type": "Point", "coordinates": [ -74.00016545, 40.71117416 ] } },
{ "type": "Feature", "properties": { "field_1": 381, "id": 9065, "name": "Atlantic Ave & Fort Greene Pl", "st_x": -73.97632328, "st_y": 40.68382604, "full": 17, "empty": 10 }, "geometry": { "type": "Point", "coordinates": [ -73.97632328, 40.68382604 ] } },
{ "type": "Feature", "properties": { "field_1": 382, "id": 9066, "name": "W 17 St & 8 Ave", "st_x": -74.00149746, "st_y": 40.74177603, "full": 156, "empty": 137 }, "geometry": { "type": "Point", "coordinates": [ -74.00149746, 40.74177603 ] } },
{ "type": "Feature", "properties": { "field_1": 383, "id": 9067, "name": "Park Ave & St Edwards St", "st_x": -73.97803415, "st_y": 40.69608941, "full": 34, "empty": 16 }, "geometry": { "type": "Point", "coordinates": [ -73.97803415, 40.69608941 ] } },
{ "type": "Feature", "properties": { "field_1": 384, "id": 9068, "name": "Lexington Ave & Classon Ave", "st_x": -73.95928168, "st_y": 40.68676793, "full": 145, "empty": 11 }, "geometry": { "type": "Point", "coordinates": [ -73.95928168, 40.68676793 ] } },
{ "type": "Feature", "properties": { "field_1": 385, "id": 9069, "name": "Barrow St & Hudson St", "st_x": -74.00674436, "st_y": 40.73172428, "full": 159, "empty": 100 }, "geometry": { "type": "Point", "coordinates": [ -74.00674436, 40.73172428 ] } },
{ "type": "Feature", "properties": { "field_1": 386, "id": 9070, "name": "MacDougal St & Prince St", "st_x": -74.00297088000001, "st_y": 40.72710258, "full": 60, "empty": 310 }, "geometry": { "type": "Point", "coordinates": [ -74.00297088, 40.72710258 ] } },
{ "type": "Feature", "properties": { "field_1": 387, "id": 9071, "name": "E 56 St & Madison Ave", "st_x": -73.972924, "st_y": 40.761628, "full": 92, "empty": 86 }, "geometry": { "type": "Point", "coordinates": [ -73.972924, 40.761628 ] } },
{ "type": "Feature", "properties": { "field_1": 388, "id": 9072, "name": "Clinton St & Joralemon St", "st_x": -73.99337909, "st_y": 40.69239502, "full": 177, "empty": 33 }, "geometry": { "type": "Point", "coordinates": [ -73.99337909, 40.69239502 ] } },
{ "type": "Feature", "properties": { "field_1": 389, "id": 9073, "name": "Nassau St & Navy St", "st_x": -73.98068914, "st_y": 40.69839895, "full": 43, "empty": 40 }, "geometry": { "type": "Point", "coordinates": [ -73.98068914, 40.69839895 ] } },
{ "type": "Feature", "properties": { "field_1": 390, "id": 9074, "name": "Hudson St & Reade St", "st_x": -74.0091059, "st_y": 40.71625008, "full": 167, "empty": 128 }, "geometry": { "type": "Point", "coordinates": [ -74.0091059, 40.71625008 ] } },
{ "type": "Feature", "properties": { "field_1": 391, "id": 9075, "name": "Greenwich St & Warren St", "st_x": -74.01121978, "st_y": 40.71542197, "full": 69, "empty": 382 }, "geometry": { "type": "Point", "coordinates": [ -74.01121978, 40.71542197 ] } },
{ "type": "Feature", "properties": { "field_1": 392, "id": 9076, "name": "E 2 St & Avenue C", "st_x": -73.98085795, "st_y": 40.7208736, "full": 707, "empty": 34 }, "geometry": { "type": "Point", "coordinates": [ -73.98085795, 40.7208736 ] } },
{ "type": "Feature", "properties": { "field_1": 393, "id": 9077, "name": "Cleveland Pl & Spring St", "st_x": -73.997249007224994, "st_y": 40.722103786685999, "full": 161, "empty": 145 }, "geometry": { "type": "Point", "coordinates": [ -73.997249007224994, 40.722103786685999 ] } },
{ "type": "Feature", "properties": { "field_1": 394, "id": 9078, "name": "Warren St & Church St", "st_x": -74.00910627, "st_y": 40.71473993, "full": 84, "empty": 202 }, "geometry": { "type": "Point", "coordinates": [ -74.00910627, 40.71473993 ] } },
{ "type": "Feature", "properties": { "field_1": 395, "id": 9079, "name": "E 40 St & 5 Ave", "st_x": -73.981632404300001, "st_y": 40.752062307000003, "full": 224, "empty": 50 }, "geometry": { "type": "Point", "coordinates": [ -73.981632404300001, 40.752062307 ] } },
{ "type": "Feature", "properties": { "field_1": 396, "id": 9080, "name": "Henry St & Atlantic Ave", "st_x": -73.99612349, "st_y": 40.69089272, "full": 135, "empty": 29 }, "geometry": { "type": "Point", "coordinates": [ -73.99612349, 40.69089272 ] } },
{ "type": "Feature", "properties": { "field_1": 398, "id": 9082, "name": "LaGuardia Pl & W 3 St", "st_x": -73.99810231, "st_y": 40.72917025, "full": 78, "empty": 253 }, "geometry": { "type": "Point", "coordinates": [ -73.99810231, 40.72917025 ] } },
{ "type": "Feature", "properties": { "field_1": 399, "id": 9083, "name": "E 47 St & 2 Ave", "st_x": -73.97032517, "st_y": 40.75323098, "full": 147, "empty": 77 }, "geometry": { "type": "Point", "coordinates": [ -73.97032517, 40.75323098 ] } },
{ "type": "Feature", "properties": { "field_1": 400, "id": 9084, "name": "E 39 St & 3 Ave", "st_x": -73.97604882, "st_y": 40.7489006, "full": 221, "empty": 12 }, "geometry": { "type": "Point", "coordinates": [ -73.97604882, 40.7489006 ] } },
{ "type": "Feature", "properties": { "field_1": 401, "id": 9085, "name": "W 18 St & 6 Ave", "st_x": -73.99456405, "st_y": 40.73971301, "full": 95, "empty": 248 }, "geometry": { "type": "Point", "coordinates": [ -73.99456405, 40.73971301 ] } },
{ "type": "Feature", "properties": { "field_1": 402, "id": 9086, "name": "Broadway & W 49 St", "st_x": -73.984527289867401, "st_y": 40.760683270965899, "full": 182, "empty": 29 }, "geometry": { "type": "Point", "coordinates": [ -73.984527289867401, 40.760683270965899 ] } },
{ "type": "Feature", "properties": { "field_1": 403, "id": 9087, "name": "E 25 St & 1 Ave", "st_x": -73.97738662, "st_y": 40.7381765, "full": 829, "empty": 46 }, "geometry": { "type": "Point", "coordinates": [ -73.97738662, 40.7381765 ] } },
{ "type": "Feature", "properties": { "field_1": 404, "id": 9088, "name": "Liberty St & Broadway", "st_x": -74.01043382, "st_y": 40.70905623, "full": 132, "empty": 55 }, "geometry": { "type": "Point", "coordinates": [ -74.01043382, 40.70905623 ] } },
{ "type": "Feature", "properties": { "field_1": 405, "id": 9089, "name": "W 16 St & The High Line", "st_x": -74.00681753000001, "st_y": 40.74334935, "full": 192, "empty": 163 }, "geometry": { "type": "Point", "coordinates": [ -74.00681753, 40.74334935 ] } },
{ "type": "Feature", "properties": { "field_1": 406, "id": 9090, "name": "Columbia Heights & Cranberry St", "st_x": -73.99548059, "st_y": 40.70037867, "full": 162, "empty": 9 }, "geometry": { "type": "Point", "coordinates": [ -73.99548059, 40.70037867 ] } },