{
"type": "FeatureCollection",
"crs": { "type": "name", "properties": { "name": "urn:ogc:def:crs:OGC:1.3:CRS84" } },
"features": [
{ "type": "Feature", "properties": { "id": 1299, "name": "05.5 Montana Over-pass and Beach Bike Path", "target_bikes_amount": 5, "breezePeform_Freq": 1264 }, "geometry": { "type": "Point", "coordinates": [ -118.50888689961775, 34.020814069154383 ] } },
{ "type": "Feature", "properties": { "id": 1008, "name": "81. Ocean Avenue and Olympic Place", "target_bikes_amount": 20, "breezePeform_Freq": 1688 }, "geometry": { "type": "Point", "coordinates": [ -118.49285435722058, 34.010016243597555 ] } },
{ "type": "Feature", "properties": { "id": 1009, "name": "70.  Main Street and Kinney Street", "target_bikes_amount": 3, "breezePeform_Freq": 1194 }, "geometry": { "type": "Point", "coordinates": [ -118.480870033643058, 33.999150761847254 ] } },
{ "type": "Feature", "properties": { "id": 1010, "name": "50.  Ocean Avenue and Bay Street", "target_bikes_amount": 4, "breezePeform_Freq": 1325 }, "geometry": { "type": "Point", "coordinates": [ -118.489901816485542, 34.006259819162352 ] } },
{ "type": "Feature", "properties": { "id": 1011, "name": "62.  Ocean Park Boulevard and 2nd street", "target_bikes_amount": 4, "breezePeform_Freq": 896 }, "geometry": { "type": "Point", "coordinates": [ -118.483314772559652, 34.002662550180581 ] } },
{ "type": "Feature", "properties": { "id": 1012, "name": "56.  Main Street and Strand Street", "target_bikes_amount": 4, "breezePeform_Freq": 1106 }, "geometry": { "type": "Point", "coordinates": [ -118.486564873439534, 34.004771127845515 ] } },
{ "type": "Feature", "properties": { "id": 1052, "name": "07.  Montana Avenue and 7th Street", "target_bikes_amount": 5, "breezePeform_Freq": 1320 }, "geometry": { "type": "Point", "coordinates": [ -118.501955378131498, 34.026663803629809 ] } },
{ "type": "Feature", "properties": { "id": 1053, "name": "06.  Ocean Avenue and Montana Avenue", "target_bikes_amount": 6, "breezePeform_Freq": 1378 }, "geometry": { "type": "Point", "coordinates": [ -118.50720672318937, 34.021951965726807 ] } },
{ "type": "Feature", "properties": { "id": 1055, "name": "11.  4th Street and Washington Boulevard", "target_bikes_amount": 3, "breezePeform_Freq": 953 }, "geometry": { "type": "Point", "coordinates": [ -118.501475596418757, 34.021762209459013 ] } },
{ "type": "Feature", "properties": { "id": 981, "name": "22.  Arizona Ave and 4th Street", "target_bikes_amount": 5, "breezePeform_Freq": 1165 }, "geometry": { "type": "Point", "coordinates": [ -118.496544802607289, 34.017875823545573 ] } },
{ "type": "Feature", "properties": { "id": 1427, "name": "87. Ocean front walk and Marine", "target_bikes_amount": 10, "breezePeform_Freq": 2976 }, "geometry": { "type": "Point", "coordinates": [ -118.481888946477923, 33.996527391307538 ] } },
{ "type": "Feature", "properties": { "id": 1058, "name": "84. Ocean Front Walk and Rose Avenue", "target_bikes_amount": 6, "breezePeform_Freq": 920 }, "geometry": { "type": "Point", "coordinates": [ -118.480494401693889, 33.994817790476091 ] } },
{ "type": "Feature", "properties": { "id": 1022, "name": "38.  Colorado Avenue and 17th Street EXPO", "target_bikes_amount": 14, "breezePeform_Freq": 921 }, "geometry": { "type": "Point", "coordinates": [ -118.479956786935475, 34.023079592995281 ] } },
{ "type": "Feature", "properties": { "id": 986, "name": "35.  Ocean Ave and Colorado", "target_bikes_amount": 8, "breezePeform_Freq": 1995 }, "geometry": { "type": "Point", "coordinates": [ -118.495573899704908, 34.011726259624311 ] } },
{ "type": "Feature", "properties": { "id": 1061, "name": "95. California Avenue and Abbot Kinney", "target_bikes_amount": 5, "breezePeform_Freq": 1048 }, "geometry": { "type": "Point", "coordinates": [ -118.465926829752476, 33.990896995653422 ] } },
{ "type": "Feature", "properties": { "id": 988, "name": "13.  Wilshire Boulevard and 2nd Street", "target_bikes_amount": 5, "breezePeform_Freq": 1058 }, "geometry": { "type": "Point", "coordinates": [ -118.500385635082978, 34.017440055231241 ] } },
{ "type": "Feature", "properties": { "id": 1507, "name": "80. 4th Court \/ Colorado EXPO", "target_bikes_amount": 5, "breezePeform_Freq": 1046 }, "geometry": { "type": "Point", "coordinates": [ -118.491432640112563, 34.014294826200988 ] } },
{ "type": "Feature", "properties": { "id": 990, "name": "21.  2nd Street and Arizona Avenue", "target_bikes_amount": 7, "breezePeform_Freq": 899 }, "geometry": { "type": "Point", "coordinates": [ -118.497987122497463, 34.015722331511064 ] } },
{ "type": "Feature", "properties": { "id": 991, "name": "28.  2nd Street and Broadway", "target_bikes_amount": 6, "breezePeform_Freq": 1756 }, "geometry": { "type": "Point", "coordinates": [ -118.496032362823229, 34.014057902884147 ] } },
{ "type": "Feature", "properties": { "id": 993, "name": "29.  Broadway and 6th Street", "target_bikes_amount": 5, "breezePeform_Freq": 1109 }, "geometry": { "type": "Point", "coordinates": [ -118.491467154647424, 34.016439959513129 ] } },
{ "type": "Feature", "properties": { "id": 1072, "name": "12.  Ocean Front Walk @ Lot 1", "target_bikes_amount": 10, "breezePeform_Freq": 3110 }, "geometry": { "type": "Point", "coordinates": [ -118.497899898431896, 34.01230616145024 ] } }
]
}
