{
"type": "FeatureCollection",
"crs": { "type": "name", "properties": { "name": "urn:ogc:def:crs:OGC:1.3:CRS84" } },
"features": [
{ "type": "Feature", "properties": { "field_1": 1, "code": "4CITIES", "title": "4CITIES - UNICA Euromaster in Urban Studies", "website": "http:\/\/www.4cities.eu\/", "uni": "Free University of Brussels", "country": "Belgium", "city": "Brussels", "lat": 50.8503, "lon": 4.3517 }, "geometry": { "type": "Point", "coordinates": [ 4.382183742386527, 50.813566309993838 ] } },
{ "type": "Feature", "properties": { "field_1": 2, "code": "ACES", "title": "ACES - Joint Masters Degree in Aquaculture, Environment and Society", "website": "http:\/\/www.sams.ac.uk\/aces-erasmus", "uni": "University of the Highlands and Islands", "country": "UK", "city": "Oban", "lat": 56.4152, "lon": -5.471 }, "geometry": { "type": "Point", "coordinates": [ -5.475459075201636, 56.402180040213828 ] } },
{ "type": "Feature", "properties": { "field_1": 3, "code": "ADVANCES", "title": "ADVANCES - MA Advanced Development in Social Work", "website": "http:\/\/www.socialworkadvances.org\/", "uni": "University of Lincoln", "country": "UK", "city": "Lincoln", "lat": 53.2307, "lon": -0.5406 }, "geometry": { "type": "Point", "coordinates": [ -0.550343177533091, 53.228983225709229 ] } },
{ "type": "Feature", "properties": { "field_1": 4, "code": "AMASE", "title": "AMASE - Joint European Master Programme on Advanced Materials Science and Engineering", "website": "http:\/\/www.amase-master.net\/", "uni": "Saarland University", "country": "Germany", "city": "Saarbrücken", "lat": 49.2402, "lon": 6.9969 }, "geometry": { "type": "Point", "coordinates": [ 7.041176196260649, 49.255026861682808 ] } },
{ "type": "Feature", "properties": { "field_1": 5, "code": "ARCHMAT", "title": "ARCHMAT - European Master in ARCHaeological MATerials Science", "website": "http:\/\/www.erasmusmundus-archmat.uevora.pt\/", "uni": "University of Evora", "country": "Portugal", "city": "Evora", "lat": 38.5707, "lon": -7.9093 }, "geometry": { "type": "Point", "coordinates": [ -7.9093, 38.5707 ] } },
{ "type": "Feature", "properties": { "field_1": 6, "code": "ASC", "title": "ASC - Advanced Spectroscopy in Chemistry Master's Course", "website": "http:\/\/www.master-asc.org\/", "uni": "University of Bologna", "country": "Italy", "city": "Bologna", "lat": 44.4949, "lon": 11.3426 }, "geometry": { "type": "Point", "coordinates": [ 11.3426, 44.4949 ] } },
{ "type": "Feature", "properties": { "field_1": 7, "code": "ASTROMUNDUS", "title": "ASTROMUNDUS - Astrophysics", "website": "http:\/\/www.astromundus.eu\/", "uni": "University of Innsbruck", "country": "Austria", "city": "Innsbruck", "lat": 47.2692, "lon": 1.4041 }, "geometry": { "type": "Point", "coordinates": [ 11.384012944085585, 47.263296482108544 ] } },
{ "type": "Feature", "properties": { "field_1": 8, "code": "ATOSIM", "title": "ATOSIM - Atomic Scale Modelling of Physical, Chemical and Bio-molecular Systems", "website": "http:\/\/www.erasmusmundus-atosim.cecam.org\/", "uni": "University of Lyon", "country": "France", "city": "Lyon", "lat": 45.764, "lon": 4.8357 }, "geometry": { "type": "Point", "coordinates": [ 4.836490286582264, 45.749541409411826 ] } },
{ "type": "Feature", "properties": { "field_1": 9, "code": "BIFTEC", "title": "BIFTEC - European Master of Science in Food Science, Technology and Business", "website": "http:\/\/www.fet.kuleuven.be\/biftec", "uni": "University of Leuven", "country": "Belgium", "city": "Ghent", "lat": 51.0543, "lon": 3.7174 }, "geometry": { "type": "Point", "coordinates": [ 3.727761535189587, 51.046516754146538 ] } },
{ "type": "Feature", "properties": { "field_1": 10, "code": "CARTO", "title": "CARTO E+ JMD Cartography", "website": "http:\/\/www.cartographymaster.eu\/", "uni": "Technical University of Munich", "country": "Germany", "city": "Munich", "lat": 48.1351, "lon": 11.582 }, "geometry": { "type": "Point", "coordinates": [ 11.567934403212401, 48.149685475361565 ] } },
{ "type": "Feature", "properties": { "field_1": 11, "code": "ChIR", "title": "ChIR - Erasmus Mundus Master in Chemical Innovation and Regulation", "website": "http:\/\/www.emmcchir.org\/", "uni": "University of Algarve", "country": "Portugal", "city": "Faro", "lat": 37.0194, "lon": -7.9304 }, "geometry": { "type": "Point", "coordinates": [ -7.9304, 37.0194 ] } },
{ "type": "Feature", "properties": { "field_1": 12, "code": "CHOREOMUNDUS", "title": "CHOREOMUNDUS - International Master in Dance Knowledge, Practice and Heritage", "website": "http:\/\/www.choreomundus.org\/", "uni": "Norwegian University of Science and Technology", "country": "Norway", "city": "Trondheim", "lat": 63.4305, "lon": 10.3951 }, "geometry": { "type": "Point", "coordinates": [ 10.401597911898564, 63.419579274779451 ] } },
{ "type": "Feature", "properties": { "field_1": 13, "code": "CLE", "title": "CLE - Master Erasmus Mundus en  en Cultures Littéraires Européennes", "website": "http:\/\/www.cle.unibo.it\/site\/", "uni": "University of Bologna", "country": "Italy", "city": "Bologna", "lat": 44.4949, "lon": 11.3426 }, "geometry": { "type": "Point", "coordinates": [ 11.3426, 44.4949 ] } },
{ "type": "Feature", "properties": { "field_1": 14, "code": "CoDe", "title": "CoDe - Joint European Master in Comparative Local Development", "website": "http:\/\/www.erasmusmundus-code.eu\/", "uni": "Corvinus University of Budapest", "country": "Hungary", "city": "Budapest", "lat": 47.4979, "lon": 19.0402 }, "geometry": { "type": "Point", "coordinates": [ 19.0402, 47.4979 ] } },
{ "type": "Feature", "properties": { "field_1": 15, "code": "CoMEM", "title": "CoMEM - Erasmus Mundus MSC Coastal and Marine Engineering and Management", "website": "http:\/\/www.ntnu.edu\/studies\/mscomem", "uni": "Norwegian University of Science and Technology", "country": "Norway", "city": "Trondheim", "lat": 63.4305, "lon": 10.3951 }, "geometry": { "type": "Point", "coordinates": [ 10.40221257924032, 63.419539999106014 ] } },
{ "type": "Feature", "properties": { "field_1": 16, "code": "COSI", "title": "COSI Colour in Science and Industry", "website": "http:\/\/www.master-colorscience.eu\/", "uni": "University Jean Monnet", "country": "France", "city": "Saint-Etienne", "lat": 45.4397, "lon": 4.3872 }, "geometry": { "type": "Point", "coordinates": [ 4.39243171587833, 45.424550166064499 ] } },
{ "type": "Feature", "properties": { "field_1": 17, "code": "CWCN", "title": "CWCN - Crossways in Cultural Narratives", "website": "http:\/\/www.munduscrossways.eu\/", "uni": "University of Bergamo", "country": "Italy", "city": "Bergamo", "lat": 45.6983, "lon": 9.6773 }, "geometry": { "type": "Point", "coordinates": [ 9.6773, 45.6983 ] } },
{ "type": "Feature", "properties": { "field_1": 18, "code": "DCLead", "title": "DCLead - Msc Digital Communication Leadership", "website": "http:\/\/www.dclead.eu\/", "uni": "University of Salzburg", "country": "Austria", "city": "Salzburg", "lat": 47.8095, "lon": 13.055 }, "geometry": { "type": "Point", "coordinates": [ 13.04856480925879, 47.797253302912772 ] } },
{ "type": "Feature", "properties": { "field_1": 19, "code": "DESEM", "title": "DESEM - Erasmus Mundus MSc in Dependable Software Systems", "website": "http:\/\/www.cs.nuim.ie\/courses\/desem\/", "uni": "National University of Ireland Maynooth", "country": "Ireland", "city": "Maynooth", "lat": 53.3813, "lon": -6.5918 }, "geometry": { "type": "Point", "coordinates": [ -6.5918, 53.3813 ] } },
{ "type": "Feature", "properties": { "field_1": 20, "code": "Dyclam", "title": "Dyclam - Dynamics of cultural landscapes and heritage management", "website": "http:\/\/www.dyclam.eu\/fr\/", "uni": "University Jean Monnet", "country": "France", "city": "Saint-Etienne", "lat": 45.4397, "lon": 4.3872 }, "geometry": { "type": "Point", "coordinates": [ 4.392002886707975, 45.424704985889591 ] } },
{ "type": "Feature", "properties": { "field_1": 21, "code": "EACH", "title": "EACH - Excellence in Analytical Chemistry", "website": "http:\/\/www.analyticalchemistry.eu\/", "uni": "University of Tartu", "country": "Estonia", "city": "Tartu", "lat": 58.3776, "lon": 6.729 }, "geometry": { "type": "Point", "coordinates": [ 26.721845577297643, 58.380244911454746 ] } },
{ "type": "Feature", "properties": { "field_1": 22, "code": "EDAMUS", "title": "EDAMUS - Sustainable Management of Food Quality", "website": "http:\/\/www.master-edamus.eu\/", "uni": "University of Montpellier", "country": "France", "city": "Montpellier", "lat": 43.6108, "lon": 3.8767 }, "geometry": { "type": "Point", "coordinates": [ 3.872044140436161, 43.61559022907722 ] } },
{ "type": "Feature", "properties": { "field_1": 23, "code": "EM HRPP", "title": "EM HRPP - Erasmus Mundus Masters in Human Rights Policy and Practice", "website": "http:\/\/ws1.roehampton.ac.uk\/admissions\/erasmusmundus\/hrp\/index.html", "uni": "Roehampton University", "country": "UK", "city": "London", "lat": 51.5074, "lon": -0.1278 }, "geometry": { "type": "Point", "coordinates": [ -0.234752117466133, 51.464140542093631 ] } },
{ "type": "Feature", "properties": { "field_1": 24, "code": "EMARO+", "title": "EMARO+ - European Master on Advanced Robotics +", "website": "http:\/\/emaro.irccyn.ec-nantes.fr\/", "uni": "École centrale de Nantes", "country": "France", "city": "Nantes", "lat": 47.2184, "lon": -1.5536 }, "geometry": { "type": "Point", "coordinates": [ -1.54914017662832, 47.249298250246902 ] } },
{ "type": "Feature", "properties": { "field_1": 25, "code": "EMECC NURSING", "title": "EMECC NURSING - Emergency and Critical Care Nursing", "website": "http:\/\/masternursing.uniovi.es\/", "uni": "University of Oviedo", "country": "Spain", "city": "Oviedo", "lat": 43.3619, "lon": -5.8494 }, "geometry": { "type": "Point", "coordinates": [ -5.846508466165613, 43.361971262192078 ] } },
{ "type": "Feature", "properties": { "field_1": 26, "code": "EMECS", "title": "EMECS - European Masters programme in Embedded Computing Systems", "website": "http:\/\/www.emecs.eu\/", "uni": "University of Kaiserslautern", "country": "Germany", "city": "Kaiserslautern", "lat": 49.4401, "lon": 7.7491 }, "geometry": { "type": "Point", "coordinates": [ 7.7491, 49.4401 ] } },
{ "type": "Feature", "properties": { "field_1": 27, "code": "EMERALD", "title": "EMERALD - Master Course in Georesources Engineering", "website": "http:\/\/em-georesources.eu\/", "uni": "University of Liège", "country": "Belgium", "city": "Liège", "lat": 50.5831, "lon": 5.5591 }, "geometry": { "type": "Point", "coordinates": [ 5.5591, 50.5831 ] } },
{ "type": "Feature", "properties": { "field_1": 28, "code": "EMGS", "title": "EMGS - Global Studies - A European Perspective", "website": "http:\/\/www.globalstudies-masters.info\/", "uni": "London School of Economics and Political Sciences", "country": "UK", "city": "London", "lat": 51.5074, "lon": -0.1278 }, "geometry": { "type": "Point", "coordinates": [ -0.117394560000216, 51.514422493045828 ] } },
{ "type": "Feature", "properties": { "field_1": 29, "code": "EMLE", "title": "EMLE - European Master in Law and Economics", "website": "http:\/\/www.emle.org\/", "uni": "Erasmus University Rotterdam", "country": "Netherlands", "city": "Rotterdam", "lat": 51.9244, "lon": 4.4777 }, "geometry": { "type": "Point", "coordinates": [ 4.4777, 51.9244 ] } },
{ "type": "Feature", "properties": { "field_1": 30, "code": "EMLex ", "title": "EMLex - Europäischer Master für Lexikographie \/ European Master in Lexicography", "website": "http:\/\/www.emlex.phil.uni-erlangen.de\/", "uni": "Karoli Gaspar University of the Reformed Church in Hungary", "country": "Hungary", "city": "Budapest", "lat": 47.4979, "lon": 19.0402 }, "geometry": { "type": "Point", "coordinates": [ 19.0402, 47.4979 ] } },
{ "type": "Feature", "properties": { "field_1": 31, "code": "EMMCMSP", "title": "EMMCMSP - Erasmus Mundus Master Course on Maritime Spatial Planning", "website": "http:\/\/www.iuav.it\/Didattica1\/master\/master---I1\/Erasmus-Mu\/", "uni": "IUAV University of Venice", "country": "Italy", "city": "Venice", "lat": 45.4408, "lon": 12.3155 }, "geometry": { "type": "Point", "coordinates": [ 12.314753618227867, 45.432789968277746 ] } },
{ "type": "Feature", "properties": { "field_1": 32, "code": "EMM-Nano", "title": "EMM-Nano - Erasmus Mundus Master in Nanoscience and Nanotechnology", "website": "http:\/\/www.emm-nano.org\/", "uni": "Catholic University of Leuven", "country": "Belgium", "city": "Leuven", "lat": 50.8798, "lon": 4.7005 }, "geometry": { "type": "Point", "coordinates": [ 4.700368285569623, 50.877971653298353 ] } },
{ "type": "Feature", "properties": { "field_1": 33, "code": "EMPHID", "title": "EMPHID - Public Health in Disasters", "website": "http:\/\/www.pubhealthdisasters.eu\/", "uni": "Karolinska Institute", "country": "Sweden", "city": "Solna", "lat": 59.3689, "lon": 18.0084 }, "geometry": { "type": "Point", "coordinates": [ 18.0084, 59.3689 ] } },
{ "type": "Feature", "properties": { "field_1": 34, "code": "EMQAL", "title": "EMQAL - European Joint Master in Quality in Analytical Laboratories", "website": "http:\/\/www.emqal.org\/", "uni": "University of Algarve", "country": "Portugal", "city": "Faro", "lat": 37.0194, "lon": -7.9304 }, "geometry": { "type": "Point", "coordinates": [ -7.9304, 37.0194 ] } },
{ "type": "Feature", "properties": { "field_1": 35, "code": "EM-SANF", "title": "EM-SANF - Erasmus Mundus Master Course Sustainable Animal Nutrition and Feeding", "website": "http:\/\/www.emsanf.eu\/UK\/", "uni": "Purpan Engineering School", "country": "France", "city": "Toulouse", "lat": 43.6047, "lon": 1.4442 }, "geometry": { "type": "Point", "coordinates": [ 1.400470809115074, 43.601647870274569 ] } },
{ "type": "Feature", "properties": { "field_1": 36, "code": "EMSD", "title": "EMSD - European Master programme in Systems Dynamics", "website": "http:\/\/www.europeansystemdynamics.eu\/", "uni": "University of Bergen", "country": "Norway", "city": "Bergen", "lat": 60.3913, "lon": 5.3221 }, "geometry": { "type": "Point", "coordinates": [ 5.321573142278492, 60.38795921530312 ] } },
{ "type": "Feature", "properties": { "field_1": 37, "code": "EMSE", "title": "EMSE - European Masters Programme in Software Engineering", "website": "http:\/\/em-se.eu\/", "uni": "Free University of Bozen-Bolzano", "country": "Italy", "city": "Bolzano", "lat": 46.4983, "lon": 11.3548 }, "geometry": { "type": "Point", "coordinates": [ 11.3548, 46.4983 ] } },
{ "type": "Feature", "properties": { "field_1": 38, "code": "EMSHIP", "title": "EMSHIP - European Education in Advanced Ship Design", "website": "http:\/\/www.emship.eu\/", "uni": "University of Liège", "country": "Belgium", "city": "Liège", "lat": 50.5831, "lon": 5.5591 }, "geometry": { "type": "Point", "coordinates": [ 5.5591, 50.5831 ] } },
{ "type": "Feature", "properties": { "field_1": 39, "code": "EMTM", "title": "EMTM - European Master in Tourism Management", "website": "http:\/\/www.emtmmaster.net\/", "uni": "University of Southern Denmark", "country": "Denmark", "city": "Kolding", "lat": 55.496, "lon": 9.4731 }, "geometry": { "type": "Point", "coordinates": [ 9.4731, 55.496 ] } },
{ "type": "Feature", "properties": { "field_1": 40, "code": "EPOG", "title": "EPOG - Master's Course - Economic Policies in the age of Globalisation : knowledge, finance and development", "website": "http:\/\/www.epog.eu\/", "uni": "University of Paris XIII-Nord", "country": "France", "city": "Paris", "lat": 48.8566, "lon": 2.3522 }, "geometry": { "type": "Point", "coordinates": [ 2.341516027527177, 48.956138199716762 ] } },
{ "type": "Feature", "properties": { "field_1": 41, "code": "EUCOMOR", "title": "EUCOMOR - European Master in Comparative Morphology", "website": "http:\/\/www.eucomor.net\/", "uni": "University of Antwerp", "country": "Belgium", "city": "Antwerp", "lat": 51.2194, "lon": 4.4025 }, "geometry": { "type": "Point", "coordinates": [ 4.410139436961817, 51.222864783646983 ] } },
{ "type": "Feature", "properties": { "field_1": 42, "code": "EUROCULTURE", "title": "EUROCULTURE - Society, Politics and Culture in a Global Context", "website": "https:\/\/www.euroculturemaster.eu\/", "uni": "University of Groningen", "country": "Netherlands", "city": "Groningen", "lat": 53.2194, "lon": 6.5665 }, "geometry": { "type": "Point", "coordinates": [ 6.5665, 53.2194 ] } },
{ "type": "Feature", "properties": { "field_1": 43, "code": "EUROPHILOSOPHIE", "title": "EUROPHILOSOPHIE - Philosophies allemande et franaise dans l’espace européen", "website": "http:\/\/europhilomem.hypotheses.org\/", "uni": "University of Toulouse Jean-Jaures", "country": "France", "city": "Toulouse", "lat": 43.6047, "lon": 1.4442 }, "geometry": { "type": "Point", "coordinates": [ 1.401700143798529, 43.578243057831088 ] } },
{ "type": "Feature", "properties": { "field_1": 44, "code": "EUROPHOTONICS", "title": "EUROPHOTONICS - Master in Photonics Engineering, Nanophotonics and Biophotonics", "website": "http:\/\/www.europhotonics.org\/wordpress\/", "uni": "University of Aix-Marseille III Paul Cezanne", "country": "France", "city": "Marseille", "lat": 43.2965, "lon": 5.3698 }, "geometry": { "type": "Point", "coordinates": [ 5.377543429590383, 43.304774751934815 ] } },
{ "type": "Feature", "properties": { "field_1": 45, "code": "EU4M - EMMC", "title": "EU4M - EMMC Mechatronic Engineering", "website": "http:\/\/www.eu4m.eu\/", "uni": "University of Oviedo", "country": "Spain", "city": "Oviedo", "lat": 43.3619, "lon": -5.8494 }, "geometry": { "type": "Point", "coordinates": [ -5.846998556646017, 43.361508056677536 ] } },
{ "type": "Feature", "properties": { "field_1": 46, "code": "EUPADRA", "title": "EUPADRA - PARLIAMENTARY PROCEDURES AND LEGISLATIVE DRAFTING", "website": "http:\/\/eupadra.eu\/", "uni": "Free International University of Social Studies", "country": "Italy", "city": "Rome", "lat": 41.9028, "lon": 12.4964 }, "geometry": { "type": "Point", "coordinates": [ 12.598730892308712, 41.848792243287875 ] } },
{ "type": "Feature", "properties": { "field_1": 47, "code": "EWEM", "title": "EWEM - European Wind Energy Master", "website": "http:\/\/www.windenergymaster.eu\/", "uni": "Delft University of Technology", "country": "Netherlands", "city": "Delft", "lat": 52.0116, "lon": 4.3571 }, "geometry": { "type": "Point", "coordinates": [ 4.3571, 52.0116 ] } },
{ "type": "Feature", "properties": { "field_1": 48, "code": "FAME", "title": "FAME - Functionalised Advanced Materials and Engineering", "website": "http:\/\/www.fame-master.com\/", "uni": "University of Bordeaux 1", "country": "France", "city": "Bordeaux", "lat": 44.8378, "lon": -0.5792 }, "geometry": { "type": "Point", "coordinates": [ -0.5792, 44.8378 ] } },
{ "type": "Feature", "properties": { "field_1": 49, "code": "GroundwatCH", "title": "GroundwatCH - Groundwater and Global Change - Impacts and Adaptation", "website": "http:\/\/www.groundwatermaster.eu\/", "uni": "Technical Institute of Lisbon", "country": "Portugal", "city": "Lisbon", "lat": 38.7223, "lon": -9.1393 }, "geometry": { "type": "Point", "coordinates": [ -9.138685332658241, 38.736959191798583 ] } },
{ "type": "Feature", "properties": { "field_1": 50, "code": "GEMMA", "title": "GEMMA - Master's Degree in Women's and Gender Studies", "website": "http:\/\/masteres.ugr.es\/gemma\/", "uni": "University of Granada", "country": "Spain", "city": "Granada", "lat": 37.1773, "lon": -3.5986 }, "geometry": { "type": "Point", "coordinates": [ -3.5986, 37.1773 ] } },
{ "type": "Feature", "properties": { "field_1": 51, "code": "GeoTech", "title": "GeoTech - Master of Science in Geospatial Technologies", "website": "http:\/\/mastergeotech.info\/", "uni": "University of Münster", "country": "Germany", "city": "Münster", "lat": 51.9607, "lon": 7.6261 }, "geometry": { "type": "Point", "coordinates": [ 7.595761776203176, 51.967760631059463 ] } },
{ "type": "Feature", "properties": { "field_1": 52, "code": "GLOBED", "title": "GLOBED Erasmus Mundus Joint Master Degree on Education Policies for Global Development", "website": "http:\/\/globed.eu\/", "uni": "Autonomous University of Barcelona", "country": "Spain", "city": "Barcelona", "lat": 41.3851, "lon": 2.1734 }, "geometry": { "type": "Point", "coordinates": [ 2.1734, 41.3851 ] } },
{ "type": "Feature", "properties": { "field_1": 53, "code": "IMAE", "title": "IMAE - International Master in Applied Ecology", "website": "http:\/\/www.emmc-imae.org\/", "uni": "University of Poitiers", "country": "France", "city": "Poitiers", "lat": 46.5802, "lon": 0.3404 }, "geometry": { "type": "Point", "coordinates": [ 0.3404, 46.5802 ] } },
{ "type": "Feature", "properties": { "field_1": 54, "code": "IMAESC", "title": "IMAESC - International Master in Adult Education for Social Change", "website": "http:\/\/www.gla.ac.uk\/postgraduate\/erasmusmundus\/imaesc\/", "uni": "University of Glasgow", "country": "UK", "city": "Glasgow", "lat": 55.8642, "lon": -4.2518 }, "geometry": { "type": "Point", "coordinates": [ -4.2518, 55.8642 ] } },
{ "type": "Feature", "properties": { "field_1": 55, "code": "IMFSE", "title": "IMFSE - International Master of Science in Fire Safety Engineering", "website": "http:\/\/www.imfse.ugent.be\/", "uni": "Ghent University", "country": "Belgium", "city": "Ghent", "lat": 51.0543, "lon": 3.7174 }, "geometry": { "type": "Point", "coordinates": [ 3.7174, 51.0543 ] } },
{ "type": "Feature", "properties": { "field_1": 56, "code": "IMIM", "title": "IMIM - International Master in Industrial Management", "website": "http:\/\/www.imim.polimi.it\/", "uni": "Technical University of Madrid", "country": "Spain", "city": "Madrid", "lat": 40.4168, "lon": -3.7038 }, "geometry": { "type": "Point", "coordinates": [ -3.719531904420969, 40.448471236407151 ] } },
{ "type": "Feature", "properties": { "field_1": 57, "code": "IMIM Med", "title": "IMIM - International Master in Innovative Medicine", "website": "http:\/\/www.innovativemedicine.eu\/", "uni": "University of Groningen", "country": "The Netherlands", "city": "Groningen", "lat": 53.2194, "lon": 6.5665 }, "geometry": { "type": "Point", "coordinates": [ 6.5665, 53.2194 ] } },
{ "type": "Feature", "properties": { "field_1": 58, "code": "IMQP", "title": "IMQP - Erasmus Mundus Master in Quaternary and Prehistory", "website": "https:\/\/sites.google.com\/a\/unife.it\/quaternary-prehistory\/", "uni": "University of Ferrara", "country": "Italy", "city": "Ferrara", "lat": 44.8381, "lon": 11.6198 }, "geometry": { "type": "Point", "coordinates": [ 11.6198, 44.8381 ] } },
{ "type": "Feature", "properties": { "field_1": 59, "code": "IMRCEES", "title": "IMRCEES - International Masters in Russian, Central and East European Studies", "website": "http:\/\/www.gla.ac.uk\/postgraduate\/erasmusmundus\/imrcees\/", "uni": "Jagiellonian University", "country": "Poland", "city": "Krakow", "lat": 50.0647, "lon": 19.945 }, "geometry": { "type": "Point", "coordinates": [ 19.945, 50.0647 ] } },
{ "type": "Feature", "properties": { "field_1": 60, "code": "IMRD", "title": "IMRD - International Master of Science in Rural Development", "website": "http:\/\/www.imrd.ugent.be\/", "uni": "Slovak University of Agriculture in Nitra", "country": "Slovakia", "city": "Nitra", "lat": 48.3061, "lon": 18.0764 }, "geometry": { "type": "Point", "coordinates": [ 18.0764, 48.3061 ] } },
{ "type": "Feature", "properties": { "field_1": 61, "code": "IT4BI", "title": "IT4BI - Information Technologies for Business Intelligence", "website": "http:\/\/it4bi.univ-tours.fr\/", "uni": "Free University of Brussels", "country": "Belgium", "city": "Brussels", "lat": 50.8503, "lon": 4.3517 }, "geometry": { "type": "Point", "coordinates": [ 4.381745016828543, 50.813587250882712 ] } },
{ "type": "Feature", "properties": { "field_1": 62, "code": "JEMES", "title": "JEMES - Joint European Master Programme in Environmental Studies", "website": "http:\/\/www.jemes-cisu.eu\/", "uni": "Technical University of Hamburg-Harburg", "country": "Germany", "city": "Hamburg", "lat": 53.5511, "lon": 9.9937 }, "geometry": { "type": "Point", "coordinates": [ 9.9937, 53.5511 ] } },
{ "type": "Feature", "properties": { "field_1": 63, "code": "KINOEYES | KEM", "title": "KINOEYES | KEM - The European Movie Masters", "website": "http:\/\/www.kinoeyes.eu\/", "uni": "Lusofona University", "country": "Portugal", "city": "Lisbon", "lat": 38.7223, "lon": -9.1393 }, "geometry": { "type": "Point", "coordinates": [ -9.152120204556695, 38.759421967426519 ] } },
{ "type": "Feature", "properties": { "field_1": 64, "code": "LCT", "title": "LCT - European Masters Program in Language and Communication Technologies", "website": "http:\/\/www.lct-master.org\/", "uni": "The University of the Basque Country", "country": "Spain", "city": "San Sebastian", "lat": 43.3183, "lon": -1.9812 }, "geometry": { "type": "Point", "coordinates": [ -1.9812, 43.3183 ] } },
{ "type": "Feature", "properties": { "field_1": 65, "code": "LIVE", "title": "LIVE - Leading International Vaccinology Education", "website": "http:\/\/live.univ-lyon1.fr\/", "uni": "University of Antwerp", "country": "Belgium", "city": "Antwerp", "lat": 51.2194, "lon": 4.4025 }, "geometry": { "type": "Point", "coordinates": [ 4.410183341771942, 51.222809787081147 ] } },
{ "type": "Feature", "properties": { "field_1": 66, "code": "MAIA", "title": "MAIA - Medical Imaging and Applications EMJMD", "website": "http:\/\/www.maiamaster.org\/", "uni": "University of Girona", "country": "Spain", "city": "Girona", "lat": 41.9794, "lon": 2.8214 }, "geometry": { "type": "Point", "coordinates": [ 2.8214, 41.9794 ] } },
{ "type": "Feature", "properties": { "field_1": 67, "code": "MAMASELF", "title": "MAMASELF - Master in material science exploring European large scale facilities", "website": "http:\/\/www.mamaself.eu\/", "uni": "University of Rennes 1", "country": "France", "city": "Rennes", "lat": 48.1173, "lon": -1.6778 }, "geometry": { "type": "Point", "coordinates": [ -1.708185609785154, 48.114289778273026 ] } },
{ "type": "Feature", "properties": { "field_1": 68, "code": "MARIHE", "title": "MARIHE - Research and Innovation in Higher Education", "website": "http:\/\/www.marihe.eu\/", "uni": "Danube University Krems", "country": "Austria", "city": "Krems an der Donau", "lat": 48.41, "lon": 15.6038 }, "geometry": { "type": "Point", "coordinates": [ 15.586047364430927, 48.408835660247775 ] } },
{ "type": "Feature", "properties": { "field_1": 69, "code": "MATHMODS", "title": "MATHMODS - Mathematical Modelling in Engineering: Theory, Numerics, Applications", "website": "http:\/\/www.mathmods.eu\/", "uni": "University of L'Aquila", "country": "Italy", "city": "L'Aquila", "lat": 42.3498, "lon": 13.3995 }, "geometry": { "type": "Point", "coordinates": [ 13.3995, 42.3498 ] } },
{ "type": "Feature", "properties": { "field_1": 70, "code": "MCM", "title": "MCM - Master of Science in Computational Mechanics", "website": "http:\/\/www.cimne.com\/cm-master\/", "uni": "Swansea University", "country": "UK", "city": "Swansea", "lat": 51.6214, "lon": -3.9436 }, "geometry": { "type": "Point", "coordinates": [ -3.980430299602441, 51.609546903060625 ] } },
{ "type": "Feature", "properties": { "field_1": 71, "code": "ME3", "title": "ME3 - European Joint Masters in Management and Engineering of Environment and Energy", "website": "http:\/\/www.emn.fr\/z-de\/me3-site\/", "uni": "Queen's University Belfast", "country": "UK", "city": "Belfast", "lat": 54.5973, "lon": -5.9301 }, "geometry": { "type": "Point", "coordinates": [ -5.9301, 54.5973 ] } },
{ "type": "Feature", "properties": { "field_1": 72, "code": "MEDfOR", "title": "MEDfOR - Mediterranean Forestry and Natural Resources Management", "website": "http:\/\/www.medfor.eu\/", "uni": "University of Lisbon", "country": "Portugal", "city": "Lisbon", "lat": 38.7223, "lon": -9.1393 }, "geometry": { "type": "Point", "coordinates": [ -9.161428024303335, 38.748876003055905 ] } },
{ "type": "Feature", "properties": { "field_1": 73, "code": "Media AC", "title": "Media AC Ð Media Arts Cultures", "website": "http:\/\/www.mediaartscultures.eu\/", "uni": "Danube University Krems", "country": "Austria", "city": "Krems an der Donau", "lat": 48.41, "lon": 15.6038 }, "geometry": { "type": "Point", "coordinates": [ 15.585745714864913, 48.40869476371558 ] } },
{ "type": "Feature", "properties": { "field_1": 74, "code": "MEEES", "title": "MEEES - Masters in Earthquake Engineering and Engineering Seismology", "website": "http:\/\/www.meees.org\/", "uni": "Institute for Advanced Study\/University of Pavia - UME School, Italy", "country": "Italy", "city": "Pavia", "lat": 45.1847, "lon": 9.1582 }, "geometry": { "type": "Point", "coordinates": [ 9.1582, 45.1847 ] } },
{ "type": "Feature", "properties": { "field_1": 75, "code": "MEGEI", "title": "MEGEI - MA Economics of Globalisation and European Integration", "website": "http:\/\/www.ua.ac.be\/egei", "uni": "Antwerpen University", "country": "Belgium", "city": "Antwerp", "lat": 51.2194, "lon": 4.4025 }, "geometry": { "type": "Point", "coordinates": [ 4.409919912911191, 51.222754794457714 ] } },
{ "type": "Feature", "properties": { "field_1": 76, "code": "MEME", "title": "MEME - Erasmus Mundus Master Programme in Evolutionary Biology", "website": "http:\/\/www.evobio.eu\/", "uni": "University of Groningen", "country": "The Netherlands", "city": "Groningen", "lat": 53.2194, "lon": 6.5665 }, "geometry": { "type": "Point", "coordinates": [ 6.5665, 53.2194 ] } },
{ "type": "Feature", "properties": { "field_1": 77, "code": "MEREMMC", "title": "MEREMMC - European MSc in Marine Environment and Resources", "website": "http:\/\/www.merconsortium.eu\/", "uni": "University of Southampton", "country": "UK", "city": "Southampton", "lat": 50.9097, "lon": -1.4044 }, "geometry": { "type": "Point", "coordinates": [ -1.4005282852048, 50.908062146592393 ] } },
{ "type": "Feature", "properties": { "field_1": 78, "code": "MFAMILY", "title": "MFAMILY - European Master in Social Work with Families and Children", "website": "http:\/\/www.mfamily.eu\/", "uni": "University Institute of Lisbon", "country": "Portugal", "city": "Lisbon", "lat": 38.7223, "lon": -9.1393 }, "geometry": { "type": "Point", "coordinates": [ -9.162657358986852, 38.748739342956142 ] } },
{ "type": "Feature", "properties": { "field_1": 79, "code": "MIM", "title": "MIM - Crossing the Mediterranean: towards investment and integration", "website": "http:\/\/www.mastermimplus.eu\/", "uni": "Autonomous University of Barcelona", "country": "Spain", "city": "Barcelona", "lat": 41.3851, "lon": 2.1734 }, "geometry": { "type": "Point", "coordinates": [ 2.1734, 41.3851 ] } },
{ "type": "Feature", "properties": { "field_1": 80, "code": "MITRA", "title": "MITRA - Master en médiation interculturelle: identités, mobilités, conflits", "website": "http:\/\/mastermitra.univ-lille3.fr\/", "uni": "University of Lille", "country": "France", "city": "Lille", "lat": 50.6292, "lon": 3.0573 }, "geometry": { "type": "Point", "coordinates": [ 3.137909231390717, 50.607813270829247 ] } },
{ "type": "Feature", "properties": { "field_1": 81, "code": "MONABIP", "title": "MONABIP - Molecular Nano- and Biophotonics", "website": "http:\/\/www.monabiphot.ens-cachan.fr\/", "uni": "Cachan Normal Superior University", "country": "France", "city": "Cachan", "lat": 48.7919, "lon": 2.3314 }, "geometry": { "type": "Point", "coordinates": [ 2.3314, 48.7919 ] } },
{ "type": "Feature", "properties": { "field_1": 82, "code": "MSPME", "title": "MSPME - Masters in Strategic Project Management (European)", "website": "http:\/\/www.mspme.org\/", "uni": "Heriot Watt Universit", "country": "UK", "city": "Edinburgh", "lat": 55.9533, "lon": -3.1883 }, "geometry": { "type": "Point", "coordinates": [ -3.1883, 55.9533 ] } },
{ "type": "Feature", "properties": { "field_1": 83, "code": "MUNDUS JOURNALISM", "title": "MUNDUS JOURNALISM - Erasmus Mundus Masters Journalism, Media and Globalisation", "website": "http:\/\/www.mundusjournalism.com\/", "uni": "University of Amsterdam", "country": "The Netherlands", "city": "Amsterdam", "lat": 52.3702, "lon": 4.8952 }, "geometry": { "type": "Point", "coordinates": [ 4.951046918479493, 52.356365817737057 ] } },
{ "type": "Feature", "properties": { "field_1": 84, "code": "MUNDUS MAPP", "title": "MUNDUS MAPP - Erasmus Mundus Master's in Public Policy", "website": "http:\/\/www.mundusmapp.org\/", "uni": "Central European University", "country": "Hungary", "city": "Budapest", "lat": 47.4979, "lon": 19.0402 }, "geometry": { "type": "Point", "coordinates": [ 19.0402, 47.4979 ] } },
{ "type": "Feature", "properties": { "field_1": 85, "code": "MUNDUS URBANO", "title": "MUNDUS URBANO - Master of Science in International Cooperation and Urban Development", "website": "http:\/\/www.mundus-urbano.eu\/", "uni": "University of Grenoble- Alpes", "country": "France", "city": "Grenoble", "lat": 45.1885, "lon": 5.7245 }, "geometry": { "type": "Point", "coordinates": [ 5.7245, 45.1885 ] } },
{ "type": "Feature", "properties": { "field_1": 86, "code": "NOMADS EMMC", "title": "NOMADS EMMC - The ”Doc Nomads” Joint Master in Documentary Film Directing", "website": "http:\/\/www.docnomads.eu\/", "uni": "Lusofona University", "country": "Portugal", "city": "Lisbon", "lat": 38.7223, "lon": -9.1393 }, "geometry": { "type": "Point", "coordinates": [ -9.151768966075688, 38.759147651172995 ] } },
{ "type": "Feature", "properties": { "field_1": 87, "code": "PERCCOM", "title": "PERCCOM - PERvasive Computing & COMmunications for Sustainable Development", "website": "http:\/\/perccom.univ-lorraine.fr\/", "uni": "Lulea University of Technology", "country": "Sweden", "city": "Lulea", "lat": 65.5848, "lon": 22.1567 }, "geometry": { "type": "Point", "coordinates": [ 22.140191791392748, 65.617807965729213 ] } },
{ "type": "Feature", "properties": { "field_1": 88, "code": "PLANET Europe", "title": "PLANET Europe - Joint Masters Programme on European Spatial Planning, Environmental Policies and Regional Development", "website": "http:\/\/www.planet-europe.eu\/", "uni": "Radboud University Nijmegen", "country": "The Netherlands", "city": "Nijmegen", "lat": 51.8126, "lon": 5.8372 }, "geometry": { "type": "Point", "coordinates": [ 5.857097673504428, 51.819750019292314 ] } },
{ "type": "Feature", "properties": { "field_1": 89, "code": "PlantHealth", "title": "PlantHealth - European Master degree in Plant Health in Sustainable Cropping Systems", "website": "http:\/\/planthealth.upv.es\/", "uni": "Technical University of Valencia", "country": "Spain", "city": "Valencia", "lat": 39.4699, "lon": -0.3763 }, "geometry": { "type": "Point", "coordinates": [ -0.340824913418678, 39.481422612307611 ] } },
{ "type": "Feature", "properties": { "field_1": 90, "code": "QEM", "title": "QEM - Models and Methods of Quantitative Economics", "website": "http:\/\/erasmusmundus-qem.univ-paris1.fr\/", "uni": "Bielefeld University", "country": "Germany", "city": "Bielefeld", "lat": 52.0302, "lon": 8.5325 }, "geometry": { "type": "Point", "coordinates": [ 8.5325, 52.0302 ] } },
{ "type": "Feature", "properties": { "field_1": 91, "code": "SAHC", "title": "SAHC - Advanced Masters in Structural Analysis of Monuments and Historical Constructions", "website": "http:\/\/www.msc-sahc.org\/", "uni": "University of Minho", "country": "Portugal", "city": "Guimarães", "lat": 41.4425, "lon": -8.2918 }, "geometry": { "type": "Point", "coordinates": [ -8.2918, 41.4425 ] } },
{ "type": "Feature", "properties": { "field_1": 92, "code": "SPACEMASTER", "title": "SPACEMASTER - EMMC in Space Science and Technology", "website": "http:\/\/www.spacemaster.eu\/", "uni": "Lulea University of Technology", "country": "Sweden", "city": "Lulea", "lat": 65.5848, "lon": 22.1567 }, "geometry": { "type": "Point", "coordinates": [ 22.140191791392752, 65.617808242145443 ] } },
{ "type": "Feature", "properties": { "field_1": 93, "code": "SSI", "title": "SSI - Joint International Master in Smart Systems Integration", "website": "http:\/\/ssi-master.eu\/", "uni": "Heriot Watt University", "country": "UK", "city": "Edinburgh", "lat": 55.9533, "lon": -3.1883 }, "geometry": { "type": "Point", "coordinates": [ -3.1883, 55.9533 ] } },
{ "type": "Feature", "properties": { "field_1": 94, "code": "STEPS", "title": "STEPS - Erasmus Mundus Master Course in Sustainable Transportation and Electrical Power Systems", "website": "http:\/\/emmcsteps.uniovi.es\/", "uni": "University of Oviedo", "country": "Spain", "city": "Oviedo", "lat": 43.3619, "lon": -5.8494 }, "geometry": { "type": "Point", "coordinates": [ -5.846459457117572, 43.361151742368961 ] } },
{ "type": "Feature", "properties": { "field_1": 95, "code": "SUFONAMA", "title": "SUFONAMA - Sustainable Forest and Nature Management", "website": "http:\/\/sufonama.eu\/", "uni": "University of Copenhagen", "country": "Denmark", "city": "Copenhagen", "lat": 55.6761, "lon": 12.5683 }, "geometry": { "type": "Point", "coordinates": [ 12.5683, 55.6761 ] } },
{ "type": "Feature", "properties": { "field_1": 96, "code": "SUSCOS", "title": "SUSCOS - Sustainable Constructions under Natural Hazards and Catastrophic Events", "website": "http:\/\/steel.fsv.cvut.cz\/suscos\/", "uni": "Czech Technical University in Prague", "country": "Czech Republic", "city": "Prague", "lat": 50.0755, "lon": 14.4378 }, "geometry": { "type": "Point", "coordinates": [ 14.423293321779989, 50.086884569863983 ] } },
{ "type": "Feature", "properties": { "field_1": 97, "code": "TCCM", "title": "TCCM - Euromaster on Theoretical Chemistry and Computational Modelling", "website": "http:\/\/www.emtccm.org\/", "uni": "Autonomous University of Madrid", "country": "Spain", "city": "Madrid", "lat": 40.4168, "lon": -3.7038 }, "geometry": { "type": "Point", "coordinates": [ -3.694390262776244, 40.545627373233813 ] } },
{ "type": "Feature", "properties": { "field_1": 98, "code": "TPTI", "title": "TPTI - Techniques, Patrimoine, Territoires de l'Industrie", "website": "http:\/\/www.tpti.eu\/", "uni": "University of Paris 1 Pantheon-Sorbonne", "country": "France", "city": "Paris", "lat": 48.8566, "lon": 2.3522 }, "geometry": { "type": "Point", "coordinates": [ 2.343231344208594, 48.848473535268646 ] } },
{ "type": "Feature", "properties": { "field_1": 99, "code": "TRIBOS", "title": "TRIBOS - Joint European master in tribology of surfaces and interfaces", "website": "http:\/\/www.master-tribos.eu\/", "uni": "University of Leeds", "country": "UK", "city": "Leeds", "lat": 53.8008, "lon": -1.5491 }, "geometry": { "type": "Point", "coordinates": [ -1.5491, 53.8008 ] } },
{ "type": "Feature", "properties": { "field_1": 100, "code": "TROPIMUNDO", "title": "TROPIMUNDO - Erasmus Mundus Masters Course in Tropical Biodiversity and Ecosystems", "website": "http:\/\/www.tropimundo.eu\/", "uni": "Free University of Brussels", "country": "Belgium", "city": "Brussels", "lat": 50.8503, "lon": 4.3517 }, "geometry": { "type": "Point", "coordinates": [ 4.382480191972602, 50.813902330268455 ] } },
{ "type": "Feature", "properties": { "field_1": 101, "code": "VINIFERA", "title": "VINIFERA EuroMaster - European Master of Science of Viticulture and Enology", "website": "http:\/\/vinifera-euromaster.eu\/", "uni": "Montpellier SupAgro", "country": "France", "city": "Montpellier", "lat": 43.6108, "lon": 3.8767 }, "geometry": { "type": "Point", "coordinates": [ 3.85562610934262, 43.61867704719986 ] } },
{ "type": "Feature", "properties": { "field_1": 102, "code": "WACOMA", "title": "WACOMA - Erasmus Mundus Master in Water and Coastal Management", "website": "http:\/\/erasmusmundus.uca.es\/en\/content,3,erasmus-mundus", "uni": "University of Bologna", "country": "Italy", "city": "Bologna", "lat": 44.4949, "lon": 11.3426 }, "geometry": { "type": "Point", "coordinates": [ 11.3426, 44.4949 ] } },
{ "type": "Feature", "properties": { "field_1": 103, "code": "WINTOUR", "title": "WINTOUR - EMJMD on Wine Tourism Innovation", "website": "http:\/\/www.wintour-master.eu\/en_index\/", "uni": "University Rovira i Virgili", "country": "Spain", "city": "Tarragona", "lat": 41.1189, "lon": 1.2445 }, "geometry": { "type": "Point", "coordinates": [ 1.243182855696231, 41.132922514558182 ] } },
{ "type": "Feature", "properties": { "field_1": 104, "code": "4CITIES", "title": "4CITIES - UNICA Euromaster in Urban Studies", "website": "http:\/\/www.4cities.eu\/", "uni": "Free University of Brussels", "country": "Belgium", "city": "Brussels", "lat": 50.8503, "lon": 4.3517 }, "geometry": { "type": "Point", "coordinates": [ 4.382186221062005, 50.814011323038322 ] } },
{ "type": "Feature", "properties": { "field_1": 105, "code": "ACES", "title": "ACES - Joint Masters Degree in Aquaculture, Environment and Society", "website": "http:\/\/www.sams.ac.uk\/aces-erasmus", "uni": "University of Crete", "country": "Greece", "city": "Heraklion", "lat": 35.3387, "lon": 25.1442 }, "geometry": { "type": "Point", "coordinates": [ 25.1442, 35.3387 ] } },
{ "type": "Feature", "properties": { "field_1": 106, "code": "ADVANCES", "title": "ADVANCES - MA Advanced Development in Social Work", "website": "http:\/\/www.socialworkadvances.org\/", "uni": "Aalborg University", "country": "Denmark", "city": "Aalborg", "lat": 57.0488, "lon": 9.9217 }, "geometry": { "type": "Point", "coordinates": [ 9.981761780251505, 57.014396261756765 ] } },
{ "type": "Feature", "properties": { "field_1": 107, "code": "AMASE", "title": "AMASE - Joint European Master Programme on Advanced Materials Science and Engineering", "website": "http:\/\/www.amase-master.net\/", "uni": "Lulea Technology University", "country": "Sweden", "city": "Lulea", "lat": 65.5848, "lon": 22.1567 }, "geometry": { "type": "Point", "coordinates": [ 22.139840552911746, 65.618460729676457 ] } },
{ "type": "Feature", "properties": { "field_1": 108, "code": "ARCHMAT", "title": "ARCHMAT - European Master in ARCHaeological MATerials Science", "website": "http:\/\/www.erasmusmundus-archmat.uevora.pt\/", "uni": "Sapienza University", "country": "Italy", "city": "Rome", "lat": 41.9028, "lon": 12.4964 }, "geometry": { "type": "Point", "coordinates": [ 12.514435329678927, 41.903894283740911 ] } },
{ "type": "Feature", "properties": { "field_1": 109, "code": "ASC", "title": "ASC - Advanced Spectroscopy in Chemistry Master's Course", "website": "http:\/\/www.master-asc.org\/", "uni": "University of Helsinki", "country": "Finland", "city": "Helsinki", "lat": 60.1699, "lon": 24.9384 }, "geometry": { "type": "Point", "coordinates": [ 24.9384, 60.1699 ] } },
{ "type": "Feature", "properties": { "field_1": 110, "code": "ASTROMUNDUS", "title": "ASTROMUNDUS - Astrophysics", "website": "http:\/\/www.astromundus.eu\/", "uni": "University of Belgrade", "country": "Serbia", "city": "Belgrade", "lat": 44.7866, "lon": 20.4489 }, "geometry": { "type": "Point", "coordinates": [ 20.457623610551217, 44.818557180664328 ] } },
{ "type": "Feature", "properties": { "field_1": 111, "code": "ATOSIM", "title": "ATOSIM - Atomic Scale Modelling of Physical, Chemical and Bio-molecular Systems", "website": "http:\/\/www.erasmusmundus-atosim.cecam.org\/", "uni": "University of Amsterdam", "country": "Netherlands", "city": "Amsterdam", "lat": 52.3702, "lon": 4.8952 }, "geometry": { "type": "Point", "coordinates": [ 4.951046918479493, 52.356258491414131 ] } },
{ "type": "Feature", "properties": { "field_1": 112, "code": "BIFTEC", "title": "BIFTEC - European Master of Science in Food Science, Technology and Business", "website": "http:\/\/www.fet.kuleuven.be\/biftec", "uni": "Catholic University of Portugal", "country": "Portugal", "city": "Porto", "lat": 41.1579, "lon": -8.6291 }, "geometry": { "type": "Point", "coordinates": [ -8.673306161332507, 41.153767208566848 ] } },
{ "type": "Feature", "properties": { "field_1": 113, "code": "CARTO", "title": "CARTO E+ JMD Cartography", "website": "http:\/\/www.cartographymaster.eu\/", "uni": "Vienna University of Technology", "country": "Austria", "city": "Vienna", "lat": 48.2082, "lon": 16.3738 }, "geometry": { "type": "Point", "coordinates": [ 16.368346395370864, 48.198729699833272 ] } },
{ "type": "Feature", "properties": { "field_1": 114, "code": "ChIR", "title": "ChIR - Erasmus Mundus Master in Chemical Innovation and Regulation", "website": "http:\/\/www.emmcchir.org\/", "uni": "University of Barcelona", "country": "Spain", "city": "Barcelona", "lat": 41.3851, "lon": 2.1734 }, "geometry": { "type": "Point", "coordinates": [ 2.1734, 41.3851 ] } },
{ "type": "Feature", "properties": { "field_1": 115, "code": "CHOREOMUNDUS", "title": "CHOREOMUNDUS - International Master in Dance Knowledge, Practice and Heritage", "website": "http:\/\/www.choreomundus.org\/", "uni": "Blaise Pascal University", "country": "France", "city": "Clermont-Ferrand", "lat": 45.7772, "lon": 3.087 }, "geometry": { "type": "Point", "coordinates": [ 3.087, 45.7772 ] } },
{ "type": "Feature", "properties": { "field_1": 116, "code": "CLE", "title": "CLE - Master Erasmus Mundus en  en Cultures Littéraires Européennes", "website": "http:\/\/www.cle.unibo.it\/site\/", "uni": "University of Upper Alsace", "country": "France", "city": "Mulhouse", "lat": 47.7508, "lon": 7.3359 }, "geometry": { "type": "Point", "coordinates": [ 7.3359, 47.7508 ] } },
{ "type": "Feature", "properties": { "field_1": 117, "code": "CoDe", "title": "CoDe - Joint European Master in Comparative Local Development", "website": "http:\/\/www.erasmusmundus-code.eu\/", "uni": "University of Trento", "country": "Italy", "city": "Trento", "lat": 46.0748, "lon": 11.1217 }, "geometry": { "type": "Point", "coordinates": [ 11.12890038886057, 46.066240756816548 ] } },
{ "type": "Feature", "properties": { "field_1": 118, "code": "CoMEM", "title": "CoMEM - Erasmus Mundus MSC Coastal and Marine Engineering and Management", "website": "http:\/\/www.ntnu.edu\/studies\/mscomem", "uni": "Technical University of Catalonia Barcelona Tech", "country": "Spain", "city": "Barcelona", "lat": 41.3851, "lon": 2.1734 }, "geometry": { "type": "Point", "coordinates": [ 2.1734, 41.3851 ] } },
{ "type": "Feature", "properties": { "field_1": 119, "code": "COSI", "title": "COSI Colour in Science and Industry", "website": "http:\/\/www.master-colorscience.eu\/", "uni": "University of Granada", "country": "Spain", "city": "Granada", "lat": 37.1773, "lon": -3.5986 }, "geometry": { "type": "Point", "coordinates": [ -3.5986, 37.1773 ] } },
{ "type": "Feature", "properties": { "field_1": 120, "code": "CWCN", "title": "CWCN - Crossways in Cultural Narratives", "website": "http:\/\/www.munduscrossways.eu\/", "uni": "New University of Lisbon", "country": "Portugal", "city": "Lisbon", "lat": 38.7223, "lon": -9.1393 }, "geometry": { "type": "Point", "coordinates": [ -9.160527975695761, 38.733714186288807 ] } },
{ "type": "Feature", "properties": { "field_1": 121, "code": "DCLead", "title": "DCLead - Msc Digital Communication Leadership", "website": "http:\/\/www.dclead.eu\/", "uni": "Aalborg University", "country": "Denmark", "city": "Aalborg", "lat": 57.0488, "lon": 9.9217 }, "geometry": { "type": "Point", "coordinates": [ 9.981761780251508, 57.014395838480489 ] } },
{ "type": "Feature", "properties": { "field_1": 122, "code": "DESEM", "title": "DESEM - Erasmus Mundus MSc in Dependable Software Systems", "website": "http:\/\/www.cs.nuim.ie\/courses\/desem\/", "uni": "University of St. Andrews", "country": "UK", "city": "St. Andrews", "lat": 56.3398, "lon": -2.7967 }, "geometry": { "type": "Point", "coordinates": [ -2.792583239964598, 56.341484133837028 ] } },
{ "type": "Feature", "properties": { "field_1": 123, "code": "Dyclam", "title": "Dyclam - Dynamics of cultural landscapes and heritage management", "website": "http:\/\/www.dyclam.eu\/fr\/", "uni": "Polytechnic Institute of Tomar", "country": "Portugal", "city": "Tomar", "lat": 39.6052, "lon": -8.4043 }, "geometry": { "type": "Point", "coordinates": [ -8.390469984810471, 39.599246248212026 ] } },
{ "type": "Feature", "properties": { "field_1": 124, "code": "EACH", "title": "EACH - Excellence in Analytical Chemistry", "website": "http:\/\/www.analyticalchemistry.eu\/", "uni": "University Claude Bernard Lyon 1", "country": "France", "city": "Lyon", "lat": 45.764, "lon": 4.8357 }, "geometry": { "type": "Point", "coordinates": [ 4.836402476962011, 45.749602666722723 ] } },
{ "type": "Feature", "properties": { "field_1": 125, "code": "EDAMUS", "title": "EDAMUS - Sustainable Management of Food Quality", "website": "http:\/\/www.master-edamus.eu\/", "uni": "University of Basilicata", "country": "Italy", "city": "Potenza", "lat": 40.6464, "lon": 15.8055 }, "geometry": { "type": "Point", "coordinates": [ 15.8055, 40.6464 ] } },
{ "type": "Feature", "properties": { "field_1": 126, "code": "EM HRPP", "title": "EM HRPP - Erasmus Mundus Masters in Human Rights Policy and Practice", "website": "http:\/\/ws1.roehampton.ac.uk\/admissions\/erasmusmundus\/hrp\/index.html", "uni": "University of Gothenburg", "country": "Sweden", "city": "Gothenburg", "lat": 57.7089, "lon": 11.9746 }, "geometry": { "type": "Point", "coordinates": [ 11.9746, 57.7089 ] } },
{ "type": "Feature", "properties": { "field_1": 127, "code": "EMARO+", "title": "EMARO+ - European Master on Advanced Robotics +", "website": "http:\/\/emaro.irccyn.ec-nantes.fr\/", "uni": "Warsaw University of Technology", "country": "Poland", "city": "Warsaw", "lat": 52.2297, "lon": 21.0122 }, "geometry": { "type": "Point", "coordinates": [ 21.007985138227959, 52.221362765634851 ] } },
{ "type": "Feature", "properties": { "field_1": 128, "code": "EMECC NURSING", "title": "EMECC NURSING - Emergency and Critical Care Nursing", "website": "http:\/\/masternursing.uniovi.es\/", "uni": "University of Algarve", "country": "Portugal", "city": "Faro", "lat": 37.0194, "lon": -7.9304 }, "geometry": { "type": "Point", "coordinates": [ -7.9304, 37.0194 ] } },
{ "type": "Feature", "properties": { "field_1": 129, "code": "EMECS", "title": "EMECS - European Masters programme in Embedded Computing Systems", "website": "http:\/\/www.emecs.eu\/", "uni": "Norwegian University of Science and Technology", "country": "Norway", "city": "Trondheim", "lat": 63.4305, "lon": 10.3951 }, "geometry": { "type": "Point", "coordinates": [ 10.402036959999814, 63.419461417660607 ] } },
{ "type": "Feature", "properties": { "field_1": 130, "code": "EMERALD", "title": "EMERALD - Master Course in Georesources Engineering", "website": "http:\/\/em-georesources.eu\/", "uni": "University of Lorraine", "country": "France", "city": "Nancy", "lat": 48.6921, "lon": 6.1844 }, "geometry": { "type": "Point", "coordinates": [ 6.193907755319847, 48.683752716696837 ] } },
{ "type": "Feature", "properties": { "field_1": 131, "code": "EMGS", "title": "EMGS - Global Studies - A European Perspective", "website": "http:\/\/www.globalstudies-masters.info\/", "uni": "Roskilde University", "country": "Denmark", "city": "Roskilde", "lat": 55.6419, "lon": 12.0878 }, "geometry": { "type": "Point", "coordinates": [ 12.0878, 55.6419 ] } },
{ "type": "Feature", "properties": { "field_1": 132, "code": "EMLE", "title": "EMLE - European Master in Law and Economics", "website": "http:\/\/www.emle.org\/", "uni": "Aix-Marseille University", "country": "France", "city": "Aix-en-Provence", "lat": 43.5297, "lon": 5.4474 }, "geometry": { "type": "Point", "coordinates": [ 5.4474, 43.5297 ] } },
{ "type": "Feature", "properties": { "field_1": 133, "code": "EMLex ", "title": "EMLex - Europäischer Master für Lexikographie \/ European Master in Lexicography", "website": "http:\/\/www.emlex.phil.uni-erlangen.de\/", "uni": "University of Silesia in Katowice", "country": "Poland", "city": "Katowice", "lat": 50.2649, "lon": 19.0238 }, "geometry": { "type": "Point", "coordinates": [ 19.0238, 50.2649 ] } },
{ "type": "Feature", "properties": { "field_1": 134, "code": "EMMCMSP", "title": "EMMCMSP - Erasmus Mundus Master Course on Maritime Spatial Planning", "website": "http:\/\/www.iuav.it\/Didattica1\/master\/master---I1\/Erasmus-Mu\/", "uni": "University of the Azores", "country": "Portugal", "city": "Ponta Delgada", "lat": 37.7428, "lon": -25.6806 }, "geometry": { "type": "Point", "coordinates": [ -25.6806, 37.7428 ] } },
{ "type": "Feature", "properties": { "field_1": 135, "code": "EMM-Nano", "title": "EMM-Nano - Erasmus Mundus Master in Nanoscience and Nanotechnology", "website": "http:\/\/www.emm-nano.org\/", "uni": "Chalmers University of Technology", "country": "Sweden", "city": "Gothenburg", "lat": 57.7089, "lon": 11.9746 }, "geometry": { "type": "Point", "coordinates": [ 11.9746, 57.7089 ] } },
{ "type": "Feature", "properties": { "field_1": 136, "code": "EMPHID", "title": "EMPHID - Public Health in Disasters", "website": "http:\/\/www.pubhealthdisasters.eu\/", "uni": "Catholic University of Leuven", "country": "Belgium", "city": "Leuven", "lat": 50.8798, "lon": 4.7005 }, "geometry": { "type": "Point", "coordinates": [ 4.700280475949373, 50.877999352844931 ] } },
{ "type": "Feature", "properties": { "field_1": 137, "code": "EMQAL", "title": "EMQAL - European Joint Master in Quality in Analytical Laboratories", "website": "http:\/\/www.emqal.org\/", "uni": "University of Barcelona", "country": "Spain", "city": "Barcelona", "lat": 41.3851, "lon": 2.1734 }, "geometry": { "type": "Point", "coordinates": [ 2.1734, 41.3851 ] } },
{ "type": "Feature", "properties": { "field_1": 138, "code": "EM-SANF", "title": "EM-SANF - Erasmus Mundus Master Course Sustainable Animal Nutrition and Feeding", "website": "http:\/\/www.emsanf.eu\/UK\/", "uni": "Aarhus University", "country": "Denmark", "city": "Aarhus", "lat": 56.1629, "lon": 10.2039 }, "geometry": { "type": "Point", "coordinates": [ 10.203109713417742, 56.168229222838434 ] } },
{ "type": "Feature", "properties": { "field_1": 139, "code": "EMSD", "title": "EMSD - European Master programme in Systems Dynamics", "website": "http:\/\/www.europeansystemdynamics.eu\/", "uni": "New University of Lisbon", "country": "Portugal", "city": "Lisbon", "lat": 38.7223, "lon": -9.1393 }, "geometry": { "type": "Point", "coordinates": [ -9.160341380252726, 38.733679983784796 ] } },
{ "type": "Feature", "properties": { "field_1": 140, "code": "EMSE", "title": "EMSE - European Masters Programme in Software Engineering", "website": "http:\/\/em-se.eu\/", "uni": "University of Oulu", "country": "Finland", "city": "Oulu", "lat": 65.0121, "lon": 25.4651 }, "geometry": { "type": "Point", "coordinates": [ 25.4651, 65.0121 ] } },
{ "type": "Feature", "properties": { "field_1": 141, "code": "EMSHIP", "title": "EMSHIP - European Education in Advanced Ship Design", "website": "http:\/\/www.emship.eu\/", "uni": "École centrale de Nantes", "country": "France", "city": "Nantes", "lat": 47.2184, "lon": -1.5536 }, "geometry": { "type": "Point", "coordinates": [ -1.548944140436158, 47.248765855808173 ] } },
{ "type": "Feature", "properties": { "field_1": 142, "code": "EMTM", "title": "EMTM - European Master in Tourism Management", "website": "http:\/\/www.emtmmaster.net\/", "uni": "University of Ljubljana", "country": "Slovenia", "city": "Ljubljana", "lat": 46.0569, "lon": 14.5058 }, "geometry": { "type": "Point", "coordinates": [ 14.503516949873466, 46.049191191345727 ] } },
{ "type": "Feature", "properties": { "field_1": 143, "code": "EPOG", "title": "EPOG - Master's Course - Economic Policies in the age of Globalisation : knowledge, finance and development", "website": "http:\/\/www.epog.eu\/", "uni": "Berlin School of Economics and Law", "country": "Germany", "city": "Berlin", "lat": 52.52, "lon": 13.405 }, "geometry": { "type": "Point", "coordinates": [ 13.337650021267251, 52.485443367909824 ] } },
{ "type": "Feature", "properties": { "field_1": 144, "code": "EUCOMOR", "title": "EUCOMOR - European Master in Comparative Morphology", "website": "http:\/\/www.eucomor.net\/", "uni": "Justus Liebig University Giessen", "country": "Germany", "city": "Giessen", "lat": 50.5841, "lon": 8.6784 }, "geometry": { "type": "Point", "coordinates": [ 8.6784, 50.5841 ] } },
{ "type": "Feature", "properties": { "field_1": 145, "code": "EUROCULTURE", "title": "EUROCULTURE - Society, Politics and Culture in a Global Context", "website": "https:\/\/www.euroculturemaster.eu\/", "uni": "Palacky University of Olomouc", "country": "Czech Republic", "city": "Olomouc", "lat": 49.5938, "lon": 17.2509 }, "geometry": { "type": "Point", "coordinates": [ 17.2509, 49.5938 ] } },
{ "type": "Feature", "properties": { "field_1": 146, "code": "EUROPHILOSOPHIE", "title": "EUROPHILOSOPHIE - Philosophies allemande et franaise dans l’espace européen", "website": "http:\/\/europhilomem.hypotheses.org\/", "uni": "University of Bonn", "country": "Germany", "city": "Bonn", "lat": 50.7374, "lon": 7.0982 }, "geometry": { "type": "Point", "coordinates": [ 7.0982, 50.7374 ] } },
{ "type": "Feature", "properties": { "field_1": 147, "code": "EUROPHOTONICS", "title": "EUROPHOTONICS - Master in Photonics Engineering, Nanophotonics and Biophotonics", "website": "http:\/\/www.europhotonics.org\/wordpress\/", "uni": "University of Karlsruhe", "country": "Germany", "city": "Karlsruhe", "lat": 49.0069, "lon": 8.4037 }, "geometry": { "type": "Point", "coordinates": [ 8.4037, 49.0069 ] } },
{ "type": "Feature", "properties": { "field_1": 148, "code": "EU4M - EMMC", "title": "EU4M - EMMC Mechatronic Engineering", "website": "http:\/\/www.eu4m.eu\/", "uni": "Karlsruhe University of Applied Sciences", "country": "Germany", "city": "Karlsruhe", "lat": 49.0069, "lon": 8.4037 }, "geometry": { "type": "Point", "coordinates": [ 8.4037, 49.0069 ] } },
{ "type": "Feature", "properties": { "field_1": 149, "code": "EUPADRA", "title": "EUPADRA - PARLIAMENTARY PROCEDURES AND LEGISLATIVE DRAFTING", "website": "http:\/\/eupadra.eu\/", "uni": "University of London", "country": "UK", "city": "London", "lat": 51.5074, "lon": -0.1278 }, "geometry": { "type": "Point", "coordinates": [ -0.133771054177091, 51.524721991807979 ] } },
{ "type": "Feature", "properties": { "field_1": 150, "code": "EWEM", "title": "EWEM - European Wind Energy Master", "website": "http:\/\/www.windenergymaster.eu\/", "uni": "Technical University of Denmark", "country": "Denmark", "city": "Kongens Lyngby", "lat": 55.7635, "lon": 12.4949 }, "geometry": { "type": "Point", "coordinates": [ 12.4949, 55.7635 ] } },
{ "type": "Feature", "properties": { "field_1": 151, "code": "FAME", "title": "FAME - Functionalised Advanced Materials and Engineering", "website": "http:\/\/www.fame-master.com\/", "uni": "University of Aveiro", "country": "Portugal", "city": "Aveiro", "lat": 40.6405, "lon": -8.6538 }, "geometry": { "type": "Point", "coordinates": [ -8.657839242531537, 40.63030472179004 ] } },
{ "type": "Feature", "properties": { "field_1": 152, "code": "GroundwatCH", "title": "GroundwatCH - Groundwater and Global Change - Impacts and Adaptation", "website": "http:\/\/www.groundwatermaster.eu\/", "uni": "UNESCO-IHE Institute for Water Education", "country": "Netherlands", "city": "Delft", "lat": 52.0116, "lon": 4.3571 }, "geometry": { "type": "Point", "coordinates": [ 4.3571, 52.0116 ] } },
{ "type": "Feature", "properties": { "field_1": 153, "code": "GEMMA", "title": "GEMMA - Master's Degree in Women's and Gender Studies", "website": "http:\/\/masteres.ugr.es\/gemma\/", "uni": "University of Oviedo", "country": "Spain", "city": "Oviedo", "lat": 43.3619, "lon": -5.8494 }, "geometry": { "type": "Point", "coordinates": [ -5.846263420925411, 43.361579319099796 ] } },
{ "type": "Feature", "properties": { "field_1": 154, "code": "GeoTech", "title": "GeoTech - Master of Science in Geospatial Technologies", "website": "http:\/\/mastergeotech.info\/", "uni": "University Jaume I", "country": "Spain", "city": "Castellón de la Plana", "lat": 39.9864, "lon": -0.0513 }, "geometry": { "type": "Point", "coordinates": [ -0.0513, 39.9864 ] } },
{ "type": "Feature", "properties": { "field_1": 155, "code": "GLOBED", "title": "GLOBED Erasmus Mundus Joint Master Degree on Education Policies for Global Development", "website": "http:\/\/globed.eu\/", "uni": "University of Oslo", "country": "Norway", "city": "Oslo", "lat": 59.9139, "lon": 10.7522 }, "geometry": { "type": "Point", "coordinates": [ 10.70466122340075, 59.936593393698587 ] } },
{ "type": "Feature", "properties": { "field_1": 156, "code": "IMAE", "title": "IMAE - International Master in Applied Ecology", "website": "http:\/\/www.emmc-imae.org\/", "uni": "University Christian-Albrechts", "country": "Germany", "city": "Kiel", "lat": 54.3233, "lon": 10.1228 }, "geometry": { "type": "Point", "coordinates": [ 10.1228, 54.3233 ] } },
{ "type": "Feature", "properties": { "field_1": 157, "code": "IMAESC", "title": "IMAESC - International Master in Adult Education for Social Change", "website": "http:\/\/www.gla.ac.uk\/postgraduate\/erasmusmundus\/imaesc\/", "uni": "University of Malta", "country": "Malta", "city": "Msida", "lat": 35.8956, "lon": 14.4869 }, "geometry": { "type": "Point", "coordinates": [ 14.483910448069537, 35.902150482499138 ] } },
{ "type": "Feature", "properties": { "field_1": 158, "code": "IMFSE", "title": "IMFSE - International Master of Science in Fire Safety Engineering", "website": "http:\/\/www.imfse.ugent.be\/", "uni": "Lund University", "country": "Sweden", "city": "Lund", "lat": 55.7047, "lon": 13.191 }, "geometry": { "type": "Point", "coordinates": [ 13.191, 55.7047 ] } },
{ "type": "Feature", "properties": { "field_1": 159, "code": "IMIM", "title": "IMIM - International Master in Industrial Management", "website": "http:\/\/www.imim.polimi.it\/", "uni": "Polytechnic University of Milan", "country": "Italy", "city": "Milan", "lat": 45.4654, "lon": 9.1859 }, "geometry": { "type": "Point", "coordinates": [ 9.227655708930435, 45.478597278211993 ] } },
{ "type": "Feature", "properties": { "field_1": 160, "code": "IMIM Med", "title": "IMIM - International Master in Innovative Medicine", "website": "http:\/\/www.innovativemedicine.eu\/", "uni": "Heidelberg University", "country": "Germany", "city": "Heidelberg", "lat": 49.3988, "lon": 8.6724 }, "geometry": { "type": "Point", "coordinates": [ 8.6724, 49.3988 ] } },
{ "type": "Feature", "properties": { "field_1": 161, "code": "IMQP", "title": "IMQP - Erasmus Mundus Master in Quaternary and Prehistory", "website": "https:\/\/sites.google.com\/a\/unife.it\/quaternary-prehistory\/", "uni": "Rovira i Virgili University", "country": "Spain", "city": "Tarragona", "lat": 41.1189, "lon": 1.2445 }, "geometry": { "type": "Point", "coordinates": [ 1.243270665316482, 41.132724075781319 ] } },
{ "type": "Feature", "properties": { "field_1": 162, "code": "IMRCEES", "title": "IMRCEES - International Masters in Russian, Central and East European Studies", "website": "http:\/\/www.gla.ac.uk\/postgraduate\/erasmusmundus\/imrcees\/", "uni": "University of Glasgow", "country": "UK", "city": "Glasgow", "lat": 55.8642, "lon": -4.2518 }, "geometry": { "type": "Point", "coordinates": [ -4.2518, 55.8642 ] } },
{ "type": "Feature", "properties": { "field_1": 163, "code": "IMRD", "title": "IMRD - International Master of Science in Rural Development", "website": "http:\/\/www.imrd.ugent.be\/", "uni": "University of Pisa", "country": "Italy", "city": "Pisa", "lat": 43.7228, "lon": 10.4017 }, "geometry": { "type": "Point", "coordinates": [ 10.4017, 43.7228 ] } },
{ "type": "Feature", "properties": { "field_1": 164, "code": "IT4BI", "title": "IT4BI - Information Technologies for Business Intelligence", "website": "http:\/\/it4bi.univ-tours.fr\/", "uni": "University of Tours", "country": "France", "city": "Tours", "lat": 47.3941, "lon": 0.6848 }, "geometry": { "type": "Point", "coordinates": [ 0.6848, 47.3941 ] } },
{ "type": "Feature", "properties": { "field_1": 165, "code": "JEMES", "title": "JEMES - Joint European Master Programme in Environmental Studies", "website": "http:\/\/www.jemes-cisu.eu\/", "uni": "Aalborg University", "country": "Denmark", "city": "Aalborg", "lat": 57.0488, "lon": 9.9217 }, "geometry": { "type": "Point", "coordinates": [ 9.981937399492008, 57.014300052523012 ] } },
{ "type": "Feature", "properties": { "field_1": 166, "code": "KINOEYES | KEM", "title": "KINOEYES | KEM - The European Movie Masters", "website": "http:\/\/www.kinoeyes.eu\/", "uni": "Edinburgh Napier University", "country": "UK", "city": "Edinburgh", "lat": 55.9533, "lon": -3.1883 }, "geometry": { "type": "Point", "coordinates": [ -3.1883, 55.9533 ] } },
{ "type": "Feature", "properties": { "field_1": 167, "code": "LCT", "title": "LCT - European Masters Program in Language and Communication Technologies", "website": "http:\/\/www.lct-master.org\/", "uni": "University of Groningen", "country": "The Netherlands", "city": "Groningen", "lat": 53.2194, "lon": 6.5665 }, "geometry": { "type": "Point", "coordinates": [ 6.5665, 53.2194 ] } },
{ "type": "Feature", "properties": { "field_1": 168, "code": "LIVE", "title": "LIVE - Leading International Vaccinology Education", "website": "http:\/\/live.univ-lyon1.fr\/", "uni": "University of Barcelona", "country": "Spain", "city": "Barcelona", "lat": 41.3851, "lon": 2.1734 }, "geometry": { "type": "Point", "coordinates": [ 2.1734, 41.3851 ] } },
{ "type": "Feature", "properties": { "field_1": 169, "code": "MAIA", "title": "MAIA - Medical Imaging and Applications EMJMD", "website": "http:\/\/www.maiamaster.org\/", "uni": "University of Bourgogne", "country": "France", "city": "Dijon", "lat": 47.322, "lon": 5.0415 }, "geometry": { "type": "Point", "coordinates": [ 5.0415, 47.322 ] } },
{ "type": "Feature", "properties": { "field_1": 170, "code": "MAMASELF", "title": "MAMASELF - Master in material science exploring European large scale facilities", "website": "http:\/\/www.mamaself.eu\/", "uni": "Technical University of Munich", "country": "Germany", "city": "Munich", "lat": 48.1351, "lon": 11.582 }, "geometry": { "type": "Point", "coordinates": [ 11.567689357972197, 48.149358483100883 ] } },
{ "type": "Feature", "properties": { "field_1": 171, "code": "MARIHE", "title": "MARIHE - Research and Innovation in Higher Education", "website": "http:\/\/www.marihe.eu\/", "uni": "University of Tampere", "country": "Finland", "city": "Tampere", "lat": 61.4978, "lon": 23.761 }, "geometry": { "type": "Point", "coordinates": [ 23.761, 61.4978 ] } },
{ "type": "Feature", "properties": { "field_1": 172, "code": "MATHMODS", "title": "MATHMODS - Mathematical Modelling in Engineering: Theory, Numerics, Applications", "website": "http:\/\/www.mathmods.eu\/", "uni": "Autonomous University - Barcelona", "country": "Spain", "city": "Barcelona", "lat": 41.3851, "lon": 2.1734 }, "geometry": { "type": "Point", "coordinates": [ 2.1734, 41.3851 ] } },
{ "type": "Feature", "properties": { "field_1": 173, "code": "MCM", "title": "MCM - Master of Science in Computational Mechanics", "website": "http:\/\/www.cimne.com\/cm-master\/", "uni": "Stuttgart University", "country": "Germany", "city": "Stuttgart", "lat": 48.7758, "lon": 9.1829 }, "geometry": { "type": "Point", "coordinates": [ 9.175009543265478, 48.78151628249006 ] } },
{ "type": "Feature", "properties": { "field_1": 174, "code": "ME3", "title": "ME3 - European Joint Masters in Management and Engineering of Environment and Energy", "website": "http:\/\/www.emn.fr\/z-de\/me3-site\/", "uni": "Budapest University of Technology and Economics", "country": "Hungary", "city": "Budapest", "lat": 47.4979, "lon": 19.0402 }, "geometry": { "type": "Point", "coordinates": [ 19.0402, 47.4979 ] } },
{ "type": "Feature", "properties": { "field_1": 175, "code": "MEDfOR", "title": "MEDfOR - Mediterranean Forestry and Natural Resources Management", "website": "http:\/\/www.medfor.eu\/", "uni": "University of Lleida", "country": "Spain", "city": "Lleida", "lat": 41.6176, "lon": 0.62 }, "geometry": { "type": "Point", "coordinates": [ 0.62, 41.6176 ] } },
{ "type": "Feature", "properties": { "field_1": 176, "code": "Media AC", "title": "Media AC Ð Media Arts Cultures", "website": "http:\/\/www.mediaartscultures.eu\/", "uni": "Aalborg University", "country": "Denmark", "city": "Aalborg", "lat": 57.0488, "lon": 9.9217 }, "geometry": { "type": "Point", "coordinates": [ 9.981059303289497, 57.014586887671349 ] } },
{ "type": "Feature", "properties": { "field_1": 177, "code": "MEEES", "title": "MEEES - Masters in Earthquake Engineering and Engineering Seismology", "website": "http:\/\/www.meees.org\/", "uni": "University of Grenoble Joseph Fourier", "country": "France", "city": "Grenoble", "lat": 45.1885, "lon": 5.7245 }, "geometry": { "type": "Point", "coordinates": [ 5.7245, 45.1885 ] } },
{ "type": "Feature", "properties": { "field_1": 178, "code": "MEGEI", "title": "MEGEI - MA Economics of Globalisation and European Integration", "website": "http:\/\/www.ua.ac.be\/egei", "uni": "University of Bari Aldo Moro", "country": "Italy", "city": "Bari", "lat": 41.1171, "lon": 16.8719 }, "geometry": { "type": "Point", "coordinates": [ 16.8719, 41.1171 ] } },
{ "type": "Feature", "properties": { "field_1": 179, "code": "MEME", "title": "MEME - Erasmus Mundus Master Programme in Evolutionary Biology", "website": "http:\/\/www.evobio.eu\/", "uni": "Ludwig Maximilians University of Munich", "country": "Germany", "city": "Munich", "lat": 48.1351, "lon": 11.582 }, "geometry": { "type": "Point", "coordinates": [ 11.58082378284703, 48.150993341670357 ] } },
{ "type": "Feature", "properties": { "field_1": 180, "code": "MEREMMC", "title": "MEREMMC - European MSc in Marine Environment and Resources", "website": "http:\/\/www.merconsortium.eu\/", "uni": "Bordeaux University", "country": "France", "city": "Bordeaux", "lat": 44.8378, "lon": -0.5792 }, "geometry": { "type": "Point", "coordinates": [ -0.5792, 44.8378 ] } },
{ "type": "Feature", "properties": { "field_1": 181, "code": "MFAMILY", "title": "MFAMILY - European Master in Social Work with Families and Children", "website": "http:\/\/www.mfamily.eu\/", "uni": "University of Gothenburg", "country": "Sweden", "city": "Gothenburg", "lat": 57.7089, "lon": 11.9746 }, "geometry": { "type": "Point", "coordinates": [ 11.9746, 57.7089 ] } },
{ "type": "Feature", "properties": { "field_1": 182, "code": "MIM", "title": "MIM - Crossing the Mediterranean: towards investment and integration", "website": "http:\/\/www.mastermimplus.eu\/", "uni": "Paul-Valery Montpellier University", "country": "France", "city": "Montpellier", "lat": 43.6108, "lon": 3.8767 }, "geometry": { "type": "Point", "coordinates": [ 3.870426841850823, 43.631962766305477 ] } },
{ "type": "Feature", "properties": { "field_1": 183, "code": "MITRA", "title": "MITRA - Master en médiation interculturelle: identités, mobilités, conflits", "website": "http:\/\/mastermitra.univ-lille3.fr\/", "uni": "Katholieke KU Leuven", "country": "Belgium", "city": "Leuven", "lat": 50.8798, "lon": 4.7005 }, "geometry": { "type": "Point", "coordinates": [ 4.700368285569624, 50.87788854378924 ] } },
{ "type": "Feature", "properties": { "field_1": 184, "code": "MONABIP", "title": "MONABIP - Molecular Nano- and Biophotonics", "website": "http:\/\/www.monabiphot.ens-cachan.fr\/", "uni": "Complutense University of Madrid", "country": "Spain", "city": "Madrid", "lat": 40.4168, "lon": -3.7038 }, "geometry": { "type": "Point", "coordinates": [ -3.728696596404523, 40.446792856718027 ] } },
{ "type": "Feature", "properties": { "field_1": 185, "code": "MSPME", "title": "MSPME - Masters in Strategic Project Management (European)", "website": "http:\/\/www.mspme.org\/", "uni": "Polytechnic University of Milan", "country": "Italy", "city": "Milan", "lat": 45.4654, "lon": 9.1859 }, "geometry": { "type": "Point", "coordinates": [ 9.227263636546113, 45.477428893901056 ] } },
{ "type": "Feature", "properties": { "field_1": 186, "code": "MUNDUS JOURNALISM", "title": "MUNDUS JOURNALISM - Erasmus Mundus Masters Journalism, Media and Globalisation", "website": "http:\/\/www.mundusjournalism.com\/", "uni": "City University London", "country": "UK", "city": "London", "lat": 51.5074, "lon": -0.1278 }, "geometry": { "type": "Point", "coordinates": [ -0.103037687089122, 51.527398815897556 ] } },
{ "type": "Feature", "properties": { "field_1": 187, "code": "MUNDUS MAPP", "title": "MUNDUS MAPP - Erasmus Mundus Master's in Public Policy", "website": "http:\/\/www.mundusmapp.org\/", "uni": "International Institute of Social Studies of Erasmus University Rotterdam", "country": "Netherlands", "city": "The Hague", "lat": 52.0705, "lon": 4.3007 }, "geometry": { "type": "Point", "coordinates": [ 4.3007, 52.0705 ] } },
{ "type": "Feature", "properties": { "field_1": 188, "code": "MUNDUS URBANO", "title": "MUNDUS URBANO - Master of Science in International Cooperation and Urban Development", "website": "http:\/\/www.mundus-urbano.eu\/", "uni": "Darmstadt University", "country": "Germany", "city": "Darmstadt", "lat": 49.8728, "lon": 8.6512 }, "geometry": { "type": "Point", "coordinates": [ 8.6512, 49.8728 ] } },
{ "type": "Feature", "properties": { "field_1": 189, "code": "NOMADS EMMC", "title": "NOMADS EMMC - The ”Doc Nomads” Joint Master in Documentary Film Directing", "website": "http:\/\/www.docnomads.eu\/", "uni": "Luca School of Arts", "country": "Belgium", "city": "Brussels", "lat": 50.8503, "lon": 4.3517 }, "geometry": { "type": "Point", "coordinates": [ 4.367548155212948, 50.858076294809443 ] } },
{ "type": "Feature", "properties": { "field_1": 190, "code": "PERCCOM", "title": "PERCCOM - PERvasive Computing & COMmunications for Sustainable Development", "website": "http:\/\/perccom.univ-lorraine.fr\/", "uni": "University of Lorraine", "country": "France", "city": "Nancy", "lat": 48.6921, "lon": 6.1844 }, "geometry": { "type": "Point", "coordinates": [ 6.194789918184575, 48.684270417920686 ] } },
{ "type": "Feature", "properties": { "field_1": 191, "code": "PLANET Europe", "title": "PLANET Europe - Joint Masters Programme on European Spatial Planning, Environmental Policies and Regional Development", "website": "http:\/\/www.planet-europe.eu\/", "uni": "Blekinge Institute of Technology", "country": "Sweden", "city": "Karlskrona", "lat": 56.1612, "lon": 15.5869 }, "geometry": { "type": "Point", "coordinates": [ 15.5869, 56.1612 ] } },
{ "type": "Feature", "properties": { "field_1": 192, "code": "PlantHealth", "title": "PlantHealth - European Master degree in Plant Health in Sustainable Cropping Systems", "website": "http:\/\/planthealth.upv.es\/", "uni": "University of Göttingen", "country": "Germany", "city": "Göttingen", "lat": 51.5413, "lon": 9.9158 }, "geometry": { "type": "Point", "coordinates": [ 9.9158, 51.5413 ] } },
{ "type": "Feature", "properties": { "field_1": 193, "code": "QEM", "title": "QEM - Models and Methods of Quantitative Economics", "website": "http:\/\/erasmusmundus-qem.univ-paris1.fr\/", "uni": "Pantheon-Sorbonne University", "country": "France", "city": "Paris", "lat": 48.8566, "lon": 2.3522 }, "geometry": { "type": "Point", "coordinates": [ 2.345877832802779, 48.847118990131079 ] } },
{ "type": "Feature", "properties": { "field_1": 194, "code": "SAHC", "title": "SAHC - Advanced Masters in Structural Analysis of Monuments and Historical Constructions", "website": "http:\/\/www.msc-sahc.org\/", "uni": "Czech Technical University in Prague", "country": "Czech Republic", "city": "Prague", "lat": 50.0755, "lon": 14.4378 }, "geometry": { "type": "Point", "coordinates": [ 14.390555277688888, 50.102919125267633 ] } },
{ "type": "Feature", "properties": { "field_1": 195, "code": "SPACEMASTER", "title": "SPACEMASTER - EMMC in Space Science and Technology", "website": "http:\/\/www.spacemaster.eu\/", "uni": "University of Würzburg", "country": "Germany", "city": "Würzburg", "lat": 49.7913, "lon": 9.9534 }, "geometry": { "type": "Point", "coordinates": [ 9.970961924050156, 49.782796142412678 ] } },
{ "type": "Feature", "properties": { "field_1": 196, "code": "SSI", "title": "SSI - Joint International Master in Smart Systems Integration", "website": "http:\/\/ssi-master.eu\/", "uni": "Buskerud and Vestfold University College", "country": "Norway", "city": "Vestfold", "lat": 59.1708, "lon": 10.1144 }, "geometry": { "type": "Point", "coordinates": [ 10.1144, 59.1708 ] } },
{ "type": "Feature", "properties": { "field_1": 197, "code": "STEPS", "title": "STEPS - Erasmus Mundus Master Course in Sustainable Transportation and Electrical Power Systems", "website": "http:\/\/emmcsteps.uniovi.es\/", "uni": "University of Nottingham", "country": "UK", "city": "Nottingham", "lat": 52.9548, "lon": -1.1581 }, "geometry": { "type": "Point", "coordinates": [ -1.1581, 52.9548 ] } },
{ "type": "Feature", "properties": { "field_1": 198, "code": "SUFONAMA", "title": "SUFONAMA - Sustainable Forest and Nature Management", "website": "http:\/\/sufonama.eu\/", "uni": "Bangor University", "country": "UK", "city": "Bangor", "lat": 53.2274, "lon": -4.1239 }, "geometry": { "type": "Point", "coordinates": [ -4.1239, 53.2274 ] } },
{ "type": "Feature", "properties": { "field_1": 199, "code": "SUSCOS", "title": "SUSCOS - Sustainable Constructions under Natural Hazards and Catastrophic Events", "website": "http:\/\/steel.fsv.cvut.cz\/suscos\/", "uni": "University of Liège", "country": "Belgium", "city": "Liège", "lat": 50.5831, "lon": 5.5591 }, "geometry": { "type": "Point", "coordinates": [ 5.5591, 50.5831 ] } },
{ "type": "Feature", "properties": { "field_1": 200, "code": "TCCM", "title": "TCCM - Euromaster on Theoretical Chemistry and Computational Modelling", "website": "http:\/\/www.emtccm.org\/", "uni": "University of Valencia", "country": "Spain", "city": "Valencia", "lat": 39.4699, "lon": -0.3763 }, "geometry": { "type": "Point", "coordinates": [ -0.359703981772599, 39.47945708885765 ] } },
{ "type": "Feature", "properties": { "field_1": 201, "code": "TPTI", "title": "TPTI - Techniques, Patrimoine, Territoires de l'Industrie", "website": "http:\/\/www.tpti.eu\/", "uni": "University of Evora", "country": "Portugal", "city": "Evora", "lat": 38.5707, "lon": -7.9093 }, "geometry": { "type": "Point", "coordinates": [ -7.9093, 38.5707 ] } },
{ "type": "Feature", "properties": { "field_1": 202, "code": "TRIBOS", "title": "TRIBOS - Joint European master in tribology of surfaces and interfaces", "website": "http:\/\/www.master-tribos.eu\/", "uni": "University of Ljubljana", "country": "Slovenia", "city": "Ljubljana", "lat": 46.0569, "lon": 14.5058 }, "geometry": { "type": "Point", "coordinates": [ 14.503473045063339, 46.049160736690737 ] } },
{ "type": "Feature", "properties": { "field_1": 203, "code": "TROPIMUNDO", "title": "TROPIMUNDO - Erasmus Mundus Masters Course in Tropical Biodiversity and Ecosystems", "website": "http:\/\/www.tropimundo.eu\/", "uni": "Free University of Brussels", "country": "Belgium", "city": "Brussels", "lat": 50.8503, "lon": 4.3517 }, "geometry": { "type": "Point", "coordinates": [ 4.382216832704039, 50.813455073139714 ] } },
{ "type": "Feature", "properties": { "field_1": 204, "code": "VINIFERA", "title": "VINIFERA EuroMaster - European Master of Science of Viticulture and Enology", "website": "http:\/\/vinifera-euromaster.eu\/", "uni": "Bordeaux Sciences Agro", "country": "France", "city": "Bordeaux", "lat": 44.8378, "lon": -0.5792 }, "geometry": { "type": "Point", "coordinates": [ -0.5792, 44.8378 ] } },
{ "type": "Feature", "properties": { "field_1": 205, "code": "WACOMA", "title": "WACOMA - Erasmus Mundus Master in Water and Coastal Management", "website": "http:\/\/erasmusmundus.uca.es\/en\/content,3,erasmus-mundus", "uni": "University of Cadiz", "country": "Spain", "city": "Cadiz", "lat": 36.5271, "lon": -6.2886 }, "geometry": { "type": "Point", "coordinates": [ -6.2886, 36.5271 ] } },
{ "type": "Feature", "properties": { "field_1": 206, "code": "WINTOUR", "title": "WINTOUR - EMJMD on Wine Tourism Innovation", "website": "http:\/\/www.wintour-master.eu\/en_index\/", "uni": "University of Bordeaux", "country": "France", "city": "Bordeaux", "lat": 44.8378, "lon": -0.5792 }, "geometry": { "type": "Point", "coordinates": [ -0.5792, 44.8378 ] } },
{ "type": "Feature", "properties": { "field_1": 207, "code": "4CITIES", "title": "4CITIES - UNICA Euromaster in Urban Studies", "website": "http:\/\/www.4cities.eu\/", "uni": "University of Vienna", "country": "Austria", "city": "Vienna", "lat": 48.2082, "lon": 16.3738 }, "geometry": { "type": "Point", "coordinates": [ 16.359969984810505, 48.213144578849331 ] } },
{ "type": "Feature", "properties": { "field_1": 208, "code": "ACES", "title": "ACES - Joint Masters Degree in Aquaculture, Environment and Society", "website": "http:\/\/www.sams.ac.uk\/aces-erasmus", "uni": "University of Nantes", "country": "France", "city": "Nantes", "lat": 47.2184, "lon": -1.5536 }, "geometry": { "type": "Point", "coordinates": [ -1.556025947878002, 47.209578116813809 ] } },
{ "type": "Feature", "properties": { "field_1": 209, "code": "ADVANCES", "title": "ADVANCES - MA Advanced Development in Social Work", "website": "http:\/\/www.socialworkadvances.org\/", "uni": "University of Lisbon", "country": "Portugal", "city": "Lisbon", "lat": 38.7223, "lon": -9.1393 }, "geometry": { "type": "Point", "coordinates": [ -9.161076785822328, 38.748876206941496 ] } },
{ "type": "Feature", "properties": { "field_1": 210, "code": "AMASE", "title": "AMASE - Joint European Master Programme on Advanced Materials Science and Engineering", "website": "http:\/\/www.amase-master.net\/", "uni": "University of Lorraine", "country": "France", "city": "Nancy", "lat": 48.6921, "lon": 6.1844 }, "geometry": { "type": "Point", "coordinates": [ 6.192437483878634, 48.684335130116345 ] } },
{ "type": "Feature", "properties": { "field_1": 211, "code": "ARCHMAT", "title": "ARCHMAT - European Master in ARCHaeological MATerials Science", "website": "http:\/\/www.erasmusmundus-archmat.uevora.pt\/", "uni": "Aristotle University of Thessaloniki", "country": "Greece", "city": "Thessaloniki", "lat": 40.6401, "lon": 22.9444 }, "geometry": { "type": "Point", "coordinates": [ 22.956956775695936, 40.631304072747035 ] } },
{ "type": "Feature", "properties": { "field_1": 212, "code": "ASC", "title": "ASC - Advanced Spectroscopy in Chemistry Master's Course", "website": "http:\/\/www.master-asc.org\/", "uni": "Jagiellonian University", "country": "Poland", "city": "Krakow", "lat": 50.0647, "lon": 19.945 }, "geometry": { "type": "Point", "coordinates": [ 19.945, 50.0647 ] } },
{ "type": "Feature", "properties": { "field_1": 213, "code": "ASTROMUNDUS", "title": "ASTROMUNDUS - Astrophysics", "website": "http:\/\/www.astromundus.eu\/", "uni": "University of Göttingen", "country": "Germany", "city": "Göttingen", "lat": 51.5413, "lon": 9.9158 }, "geometry": { "type": "Point", "coordinates": [ 9.9158, 51.5413 ] } },
{ "type": "Feature", "properties": { "field_1": 214, "code": "ATOSIM", "title": "ATOSIM - Atomic Scale Modelling of Physical, Chemical and Bio-molecular Systems", "website": "http:\/\/www.erasmusmundus-atosim.cecam.org\/", "uni": "Free University of Amsterdam", "country": "Netherlands", "city": "Amsterdam", "lat": 52.3702, "lon": 4.8952 }, "geometry": { "type": "Point", "coordinates": [ 4.864993490633731, 52.33359406461814 ] } },
{ "type": "Feature", "properties": { "field_1": 215, "code": "BIFTEC", "title": "BIFTEC - European Master of Science in Food Science, Technology and Business", "website": "http:\/\/www.fet.kuleuven.be\/biftec", "uni": "Anhalt University of Applied Sciences", "country": "Germany", "city": "Bernburg", "lat": 51.7834, "lon": 11.7537 }, "geometry": { "type": "Point", "coordinates": [ 11.7537, 51.7834 ] } },
{ "type": "Feature", "properties": { "field_1": 216, "code": "CARTO", "title": "CARTO E+ JMD Cartography", "website": "http:\/\/www.cartographymaster.eu\/", "uni": "Dresden University of Technology", "country": "Germany", "city": "Dresden", "lat": 51.0504, "lon": 13.7373 }, "geometry": { "type": "Point", "coordinates": [ 13.7373, 51.0504 ] } },
{ "type": "Feature", "properties": { "field_1": 217, "code": "ChIR", "title": "ChIR - Erasmus Mundus Master in Chemical Innovation and Regulation", "website": "http:\/\/www.emmcchir.org\/", "uni": "University of Bologna", "country": "Italy", "city": "Bologna", "lat": 44.4949, "lon": 11.3426 }, "geometry": { "type": "Point", "coordinates": [ 11.3426, 44.4949 ] } },
{ "type": "Feature", "properties": { "field_1": 218, "code": "CHOREOMUNDUS", "title": "CHOREOMUNDUS - International Master in Dance Knowledge, Practice and Heritage", "website": "http:\/\/www.choreomundus.org\/", "uni": "University of Roehampton London", "country": "UK", "city": "London", "lat": 51.5074, "lon": -0.1278 }, "geometry": { "type": "Point", "coordinates": [ -0.235630213668646, 51.464093289597969 ] } },
{ "type": "Feature", "properties": { "field_1": 219, "code": "CLE", "title": "CLE - Master Erasmus Mundus en  en Cultures Littéraires Européennes", "website": "http:\/\/www.cle.unibo.it\/site\/", "uni": "University of Strasbourg", "country": "France", "city": "Strasbourg", "lat": 48.5734, "lon": 7.7521 }, "geometry": { "type": "Point", "coordinates": [ 7.767684877276881, 48.578977182157438 ] } },
{ "type": "Feature", "properties": { "field_1": 220, "code": "CoDe", "title": "CoDe - Joint European Master in Comparative Local Development", "website": "http:\/\/www.erasmusmundus-code.eu\/", "uni": "University of Ljubljana", "country": "Slovenia", "city": "Ljubljana", "lat": 46.0569, "lon": 14.5058 }, "geometry": { "type": "Point", "coordinates": [ 14.50312180658233, 46.049343553934285 ] } },
{ "type": "Feature", "properties": { "field_1": 221, "code": "CoMEM", "title": "CoMEM - Erasmus Mundus MSC Coastal and Marine Engineering and Management", "website": "http:\/\/www.ntnu.edu\/studies\/mscomem", "uni": "Delft University of Technology", "country": "Netherlands", "city": "Delft", "lat": 52.0116, "lon": 4.3571 }, "geometry": { "type": "Point", "coordinates": [ 4.3571, 52.0116 ] } },
{ "type": "Feature", "properties": { "field_1": 222, "code": "COSI", "title": "COSI Colour in Science and Industry", "website": "http:\/\/www.master-colorscience.eu\/", "uni": "University of Eastern Finland", "country": "Finland", "city": "Joensuu", "lat": 62.601, "lon": 29.7636 }, "geometry": { "type": "Point", "coordinates": [ 29.7636, 62.601 ] } },
{ "type": "Feature", "properties": { "field_1": 223, "code": "CWCN", "title": "CWCN - Crossways in Cultural Narratives", "website": "http:\/\/www.munduscrossways.eu\/", "uni": "University of Perpignan Via Domita", "country": "France", "city": "Perpignan", "lat": 42.6887, "lon": 2.8948 }, "geometry": { "type": "Point", "coordinates": [ 2.8948, 42.6887 ] } },
{ "type": "Feature", "properties": { "field_1": 224, "code": "DCLead", "title": "DCLead - Msc Digital Communication Leadership", "website": "http:\/\/www.dclead.eu\/", "uni": "Free University of Brussel", "country": "Belgium", "city": "Brussels", "lat": 50.8503, "lon": 4.3517 }, "geometry": { "type": "Point", "coordinates": [ 4.381392053441766, 50.813787849400185 ] } },
{ "type": "Feature", "properties": { "field_1": 225, "code": "DESEM", "title": "DESEM - Erasmus Mundus MSc in Dependable Software Systems", "website": "http:\/\/www.cs.nuim.ie\/courses\/desem\/", "uni": "University of Lorraine", "country": "France", "city": "Nancy", "lat": 48.6921, "lon": 6.1844 }, "geometry": { "type": "Point", "coordinates": [ 6.19420180960809, 48.684723401294725 ] } },
{ "type": "Feature", "properties": { "field_1": 226, "code": "Dyclam", "title": "Dyclam - Dynamics of cultural landscapes and heritage management", "website": "http:\/\/www.dyclam.eu\/fr\/", "uni": "University of Naples Federico II", "country": "Italy", "city": "Napoli", "lat": 40.8518, "lon": 14.2681 }, "geometry": { "type": "Point", "coordinates": [ 14.257587559195324, 40.846053804961549 ] } },
{ "type": "Feature", "properties": { "field_1": 227, "code": "EACH", "title": "EACH - Excellence in Analytical Chemistry", "website": "http:\/\/www.analyticalchemistry.eu\/", "uni": "Uppsala University", "country": "Sweden", "city": "Uppsala", "lat": 59.8586, "lon": 17.6389 }, "geometry": { "type": "Point", "coordinates": [ 17.629592180253415, 59.850838882723153 ] } },
{ "type": "Feature", "properties": { "field_1": 228, "code": "EDAMUS", "title": "EDAMUS - Sustainable Management of Food Quality", "website": "http:\/\/www.master-edamus.eu\/", "uni": "University of Mentouri (Constantine 1)", "country": "Algiers", "city": "Constantine", "lat": 36.3602, "lon": 6.6424 }, "geometry": { "type": "Point", "coordinates": [ 6.619927493788728, 36.340699242911874 ] } },
{ "type": "Feature", "properties": { "field_1": 229, "code": "EM HRPP", "title": "EM HRPP - Erasmus Mundus Masters in Human Rights Policy and Practice", "website": "http:\/\/ws1.roehampton.ac.uk\/admissions\/erasmusmundus\/hrp\/index.html", "uni": "University of Deusto", "country": "Spain", "city": "Bilbao", "lat": 43.263, "lon": -2.935 }, "geometry": { "type": "Point", "coordinates": [ -2.935, 43.263 ] } },
{ "type": "Feature", "properties": { "field_1": 230, "code": "EMARO+", "title": "EMARO+ - European Master on Advanced Robotics +", "website": "http:\/\/emaro.irccyn.ec-nantes.fr\/", "uni": "University of Genova", "country": "Italy", "city": "Genova", "lat": 44.4056, "lon": 8.9463 }, "geometry": { "type": "Point", "coordinates": [ 8.9463, 44.4056 ] } },
{ "type": "Feature", "properties": { "field_1": 231, "code": "EMECC NURSING", "title": "EMECC NURSING - Emergency and Critical Care Nursing", "website": "http:\/\/masternursing.uniovi.es\/", "uni": "Polytechnic Institute of Santarém", "country": "Portugal", "city": "Santarém", "lat": 39.2367, "lon": -8.686 }, "geometry": { "type": "Point", "coordinates": [ -8.687372253345135, 39.221970136398433 ] } },
{ "type": "Feature", "properties": { "field_1": 232, "code": "EMECS", "title": "EMECS - European Masters programme in Embedded Computing Systems", "website": "http:\/\/www.emecs.eu\/", "uni": "University of Southampton", "country": "UK", "city": "Southampton", "lat": 50.9097, "lon": -1.4044 }, "geometry": { "type": "Point", "coordinates": [ -1.399915672104294, 50.908077598308907 ] } },
{ "type": "Feature", "properties": { "field_1": 233, "code": "EMERALD", "title": "EMERALD - Master Course in Georesources Engineering", "website": "http:\/\/em-georesources.eu\/", "uni": "Lulea University of Technology", "country": "Sweden", "city": "Lulea", "lat": 65.5848, "lon": 22.1567 }, "geometry": { "type": "Point", "coordinates": [ 22.14089426835476, 65.618098052730772 ] } },
{ "type": "Feature", "properties": { "field_1": 234, "code": "EMGS", "title": "EMGS - Global Studies - A European Perspective", "website": "http:\/\/www.globalstudies-masters.info\/", "uni": "University of Leipzig", "country": "Germany", "city": "Leipzig", "lat": 51.3397, "lon": 12.3731 }, "geometry": { "type": "Point", "coordinates": [ 12.3731, 51.3397 ] } },
{ "type": "Feature", "properties": { "field_1": 235, "code": "EMLE", "title": "EMLE - European Master in Law and Economics", "website": "http:\/\/www.emle.org\/", "uni": "University of Bologna", "country": "Italy", "city": "Bologna", "lat": 44.4949, "lon": 11.3426 }, "geometry": { "type": "Point", "coordinates": [ 11.3426, 44.4949 ] } },
{ "type": "Feature", "properties": { "field_1": 236, "code": "EMLex ", "title": "EMLex - Europäischer Master für Lexikographie \/ European Master in Lexicography", "website": "http:\/\/www.emlex.phil.uni-erlangen.de\/", "uni": "University of Lorraine", "country": "France", "city": "Nancy", "lat": 48.6921, "lon": 6.1844 }, "geometry": { "type": "Point", "coordinates": [ 6.192829556262957, 48.684788114321876 ] } },
{ "type": "Feature", "properties": { "field_1": 237, "code": "EMMCMSP", "title": "EMMCMSP - Erasmus Mundus Master Course on Maritime Spatial Planning", "website": "http:\/\/www.iuav.it\/Didattica1\/master\/master---I1\/Erasmus-Mu\/", "uni": "University of Seville", "country": "Spain", "city": "Seville", "lat": 37.3891, "lon": -5.9845 }, "geometry": { "type": "Point", "coordinates": [ -5.9845, 37.3891 ] } },
{ "type": "Feature", "properties": { "field_1": 238, "code": "EMM-Nano", "title": "EMM-Nano - Erasmus Mundus Master in Nanoscience and Nanotechnology", "website": "http:\/\/www.emm-nano.org\/", "uni": "University Joseph Fourier", "country": "France", "city": "Grenoble", "lat": 45.1885, "lon": 5.7245 }, "geometry": { "type": "Point", "coordinates": [ 5.7245, 45.1885 ] } },
{ "type": "Feature", "properties": { "field_1": 239, "code": "EMPHID", "title": "EMPHID - Public Health in Disasters", "website": "http:\/\/www.pubhealthdisasters.eu\/", "uni": "University of Oviedo", "country": "Spain", "city": "Oviedo", "lat": 43.3619, "lon": -5.8494 }, "geometry": { "type": "Point", "coordinates": [ -5.846998556646017, 43.361864368872567 ] } },
{ "type": "Feature", "properties": { "field_1": 240, "code": "EMQAL", "title": "EMQAL - European Joint Master in Quality in Analytical Laboratories", "website": "http:\/\/www.emqal.org\/", "uni": "University of Bergen", "country": "Norway", "city": "Bergen", "lat": 60.3913, "lon": 5.3221 }, "geometry": { "type": "Point", "coordinates": [ 5.321660951898743, 60.387742293082674 ] } },
{ "type": "Feature", "properties": { "field_1": 241, "code": "EM-SANF", "title": "EM-SANF - Erasmus Mundus Master Course Sustainable Animal Nutrition and Feeding", "website": "http:\/\/www.emsanf.eu\/UK\/", "uni": "University of Debrecen", "country": "Hungary", "city": "Debrecen", "lat": 47.5316, "lon": 21.6273 }, "geometry": { "type": "Point", "coordinates": [ 21.6273, 47.5316 ] } },
{ "type": "Feature", "properties": { "field_1": 242, "code": "EMSD", "title": "EMSD - European Master programme in Systems Dynamics", "website": "http:\/\/www.europeansystemdynamics.eu\/", "uni": "University of Palermo", "country": "Italy", "city": "Palermo", "lat": 38.1157, "lon": 13.3613 }, "geometry": { "type": "Point", "coordinates": [ 13.3613, 38.1157 ] } },
{ "type": "Feature", "properties": { "field_1": 243, "code": "EMSE", "title": "EMSE - European Masters Programme in Software Engineering", "website": "http:\/\/em-se.eu\/", "uni": "University of Kaiserslautern", "country": "Germany", "city": "Kaiserslautern", "lat": 49.4401, "lon": 7.7491 }, "geometry": { "type": "Point", "coordinates": [ 7.7491, 49.4401 ] } },
{ "type": "Feature", "properties": { "field_1": 244, "code": "EMSHIP", "title": "EMSHIP - European Education in Advanced Ship Design", "website": "http:\/\/www.emship.eu\/", "uni": "University of Galati Dunarea de Jos", "country": "Romania", "city": "Galati", "lat": 45.4353, "lon": 28.008 }, "geometry": { "type": "Point", "coordinates": [ 28.008, 45.4353 ] } },
{ "type": "Feature", "properties": { "field_1": 245, "code": "EMTM", "title": "EMTM - European Master in Tourism Management", "website": "http:\/\/www.emtmmaster.net\/", "uni": "University of Girona", "country": "Spain", "city": "Girona", "lat": 41.9794, "lon": 2.8214 }, "geometry": { "type": "Point", "coordinates": [ 2.8214, 41.9794 ] } },
{ "type": "Feature", "properties": { "field_1": 246, "code": "EPOG", "title": "EPOG - Master's Course - Economic Policies in the age of Globalisation : knowledge, finance and development", "website": "http:\/\/www.epog.eu\/", "uni": "Kingston University", "country": "UK", "city": "Kingston", "lat": 51.4123, "lon": -0.3007 }, "geometry": { "type": "Point", "coordinates": [ -0.3007, 51.4123 ] } },
{ "type": "Feature", "properties": { "field_1": 247, "code": "EUCOMOR", "title": "EUCOMOR - European Master in Comparative Morphology", "website": "http:\/\/www.eucomor.net\/", "uni": "University of Veterinary Medicine", "country": "Austria", "city": "Vienna", "lat": 48.2082, "lon": 16.3738 }, "geometry": { "type": "Point", "coordinates": [ 16.359969984810505, 48.213144578849331 ] } },
{ "type": "Feature", "properties": { "field_1": 248, "code": "EUROCULTURE", "title": "EUROCULTURE - Society, Politics and Culture in a Global Context", "website": "https:\/\/www.euroculturemaster.eu\/", "uni": "University of Strasbourg", "country": "France", "city": "Strasbourg", "lat": 48.5734, "lon": 7.7521 }, "geometry": { "type": "Point", "coordinates": [ 7.766949741556274, 48.578847501210468 ] } },
{ "type": "Feature", "properties": { "field_1": 249, "code": "EUROPHILOSOPHIE", "title": "EUROPHILOSOPHIE - Philosophies allemande et franaise dans l’espace européen", "website": "http:\/\/europhilomem.hypotheses.org\/", "uni": "University of Coimbra", "country": "Portugal", "city": "Coimbra", "lat": 40.2048, "lon": -8.4404 }, "geometry": { "type": "Point", "coordinates": [ -8.4404, 40.2048 ] } },
{ "type": "Feature", "properties": { "field_1": 250, "code": "EUROPHOTONICS", "title": "EUROPHOTONICS - Master in Photonics Engineering, Nanophotonics and Biophotonics", "website": "http:\/\/www.europhotonics.org\/wordpress\/", "uni": "Technical University of Catalunya", "country": "Spain", "city": "Barcelona", "lat": 41.3851, "lon": 2.1734 }, "geometry": { "type": "Point", "coordinates": [ 2.1734, 41.3851 ] } },
{ "type": "Feature", "properties": { "field_1": 251, "code": "EU4M - EMMC", "title": "EU4M - EMMC Mechatronic Engineering", "website": "http:\/\/www.eu4m.eu\/", "uni": "ƒcole Nationale SupŽrieure de MŽcanique et des Microtechniques", "country": "France", "city": "Besanon", "lat": 47.2378, "lon": 6.0241 }, "geometry": { "type": "Point", "coordinates": [ 6.0241, 47.2378 ] } },
{ "type": "Feature", "properties": { "field_1": 252, "code": "EUPADRA", "title": "EUPADRA - PARLIAMENTARY PROCEDURES AND LEGISLATIVE DRAFTING", "website": "http:\/\/eupadra.eu\/", "uni": "Complutense University of Madrid", "country": "Spain", "city": "Madrid", "lat": 40.4168, "lon": -3.7038 }, "geometry": { "type": "Point", "coordinates": [ -3.730264885941815, 40.446792923271538 ] } },
{ "type": "Feature", "properties": { "field_1": 253, "code": "EWEM", "title": "EWEM - European Wind Energy Master", "website": "http:\/\/www.windenergymaster.eu\/", "uni": "Norwegian University of Science and Technology", "country": "Norway", "city": "Trondheim", "lat": 63.4305, "lon": 10.3951 }, "geometry": { "type": "Point", "coordinates": [ 10.401597911898561, 63.41950070841024 ] } },
{ "type": "Feature", "properties": { "field_1": 254, "code": "FAME", "title": "FAME - Functionalised Advanced Materials and Engineering", "website": "http:\/\/www.fame-master.com\/", "uni": "Technical University of Darmstadt", "country": "Germany", "city": "Darmstadt", "lat": 49.8728, "lon": 8.6512 }, "geometry": { "type": "Point", "coordinates": [ 8.6512, 49.8728 ] } },
{ "type": "Feature", "properties": { "field_1": 255, "code": "GroundwatCH", "title": "GroundwatCH - Groundwater and Global Change - Impacts and Adaptation", "website": "http:\/\/www.groundwatermaster.eu\/", "uni": "Dresden University of Technology", "country": "Germany", "city": "Dresden", "lat": 51.0504, "lon": 13.7373 }, "geometry": { "type": "Point", "coordinates": [ 13.7373, 51.0504 ] } },
{ "type": "Feature", "properties": { "field_1": 256, "code": "GEMMA", "title": "GEMMA - Master's Degree in Women's and Gender Studies", "website": "http:\/\/masteres.ugr.es\/gemma\/", "uni": "Central European University", "country": "Hungary", "city": "Budapest", "lat": 47.4979, "lon": 19.0402 }, "geometry": { "type": "Point", "coordinates": [ 19.0402, 47.4979 ] } },
{ "type": "Feature", "properties": { "field_1": 257, "code": "GeoTech", "title": "GeoTech - Master of Science in Geospatial Technologies", "website": "http:\/\/mastergeotech.info\/", "uni": "New University of Lisbon", "country": "Portugal", "city": "Lisbon", "lat": 38.7223, "lon": -9.1393 }, "geometry": { "type": "Point", "coordinates": [ -9.160418213670445, 38.732224385065649 ] } },
{ "type": "Feature", "properties": { "field_1": 258, "code": "GLOBED", "title": "GLOBED Erasmus Mundus Joint Master Degree on Education Policies for Global Development", "website": "http:\/\/globed.eu\/", "uni": "University of Malta", "country": "Malta", "city": "Msida", "lat": 35.8956, "lon": 14.4869 }, "geometry": { "type": "Point", "coordinates": [ 14.483567384733252, 35.902507776347413 ] } },